Id,Label,timeset,airport_id,airport_name,airport_city,airport_country,airport_iata,airport_icao,airport_latitude,airport_longitude,airport_altitude,airport_timezone,airport_dst,airport_tz,airport_type,data_source,background_map_node,lat,lng,indegree,outdegree,Degree,weighted indegree,weighted outdegree,Weighted Degree,Eccentricity,closnesscentrality,harmonicclosnesscentrality,betweenesscentrality,Authority,Hub,modularity_class,Clustering Coefficient,pageranks,componentnumber,strongcompnum,clustering,eigencentrality
3411,,,3411,Barter Island LRRS Airport,Barter Island,United States,BTI,PABA,70.134003,-143.582001,2,-9,A,America/Anchorage,airport,OurAirports,,,,2,2,4,2,2,4,4,0.375,0.490741,14,0,0,419,0,0.001242,0,1,0,0.000529
3412,,,3412,Wainwright Air Station,Fort Wainwright,United States,\N,PAWT,70.613403,-159.860001,35,-9,A,America/Anchorage,airport,OurAirports,,,,0,0,0,0,0,0,0,0,0,0,0,0,0,0,0.000238,1,2,0,0
3413,,,3413,Cape Lisburne LRRS Airport,Cape Lisburne,United States,LUR,PALU,68.875099,-166.110001,16,-9,A,America/Anchorage,airport,OurAirports,,,,0,1,1,0,1,1,3,0.5,0.530303,0,0,0,411,0,0.000238,2,4,0,0
3414,,,3414,Point Lay LRRS Airport,Point Lay,United States,PIZ,PPIZ,69.732903,-163.005005,22,-9,A,America/Anchorage,airport,OurAirports,,,,1,1,2,1,1,2,5,0.321429,0.414815,0,0,0,419,0,0.000773,0,1,0,0.000321
3415,,,3415,Hilo International Airport,Hilo,United States,ITO,PHTO,19.721399,-155.048004,38,-10,N,Pacific/Honolulu,airport,OurAirports,,,,3,3,6,4,4,8,8,0.316824,0.347964,0,0.005383,0.005338,184,1,0.00055,3,7,1,0.027174
3416,,,3416,Orlando Executive Airport,Orlando,United States,ORL,KORL,28.5455,-81.332901,113,-5,A,America/New_York,airport,OurAirports,,,,0,0,0,0,0,0,0,0,0,0,0,0,1,0,0.000238,4,8,0,0
3417,,,3417,Bettles Airport,Bettles,United States,BTT,PABT,66.913902,-151.529007,647,-9,A,America/Anchorage,airport,OurAirports,,,,0,0,0,0,0,0,0,0,0,0,0,0,2,0,0.000238,5,9,0,0
3418,,,3418,Clear Airport,Clear Mews,United States,\N,PACL,64.301201,-149.119995,552,-9,A,America/Anchorage,airport,OurAirports,,,,0,0,0,0,0,0,0,0,0,0,0,0,3,0,0.000238,6,10,0,0
3419,,,3419,Indian Mountain LRRS Airport,Indian Mountains,United States,UTO,PAIM,65.992798,-153.703995,1273,-9,A,America/Anchorage,airport,OurAirports,,,,0,0,0,0,0,0,0,0,0,0,0,0,4,0,0.000238,7,11,0,0
3420,,,3420,Fort Yukon Airport,Fort Yukon,United States,FYU,PFYU,66.571503,-145.25,433,-9,A,America/Anchorage,airport,OurAirports,,,,1,1,2,1,1,2,5,0.28125,0.362963,0,0,0,419,0,0.000766,0,1,0,0.000275
3421,,,3421,Sparrevohn LRRS Airport,Sparrevohn,United States,SVW,PASV,61.097401,-155.574005,1585,-9,A,America/Anchorage,airport,OurAirports,,,,0,0,0,0,0,0,0,0,0,0,0,0,5,0,0.000238,8,12,0,0
3422,,,3422,Bryant Army Heliport,Fort Richardson,United States,FRN,PAFR,61.266399,-149.653,378,-9,A,America/Anchorage,airport,OurAirports,,,,0,0,0,0,0,0,0,0,0,0,0,0,6,0,0.000238,9,13,0,0
3423,,,3423,Tatalina LRRS Airport,Tatalina,United States,TLJ,PATL,62.894402,-155.977005,964,-9,A,America/Anchorage,airport,OurAirports,,,,0,0,0,0,0,0,0,0,0,0,0,0,7,0,0.000238,10,14,0,0
3424,,,3424,Cape Romanzof LRRS Airport,Cape Romanzof,United States,CZF,PACZ,61.7803,-166.039001,464,-9,A,America/Anchorage,airport,OurAirports,,,,0,0,0,0,0,0,0,0,0,0,0,0,8,0,0.000238,11,15,0,0
3425,,,3425,Laurence G Hanscom Field,Bedford,United States,BED,KBED,42.470001,-71.289001,133,-5,A,America/New_York,airport,OurAirports,,,,0,0,0,0,0,0,0,0,0,0,0,0,9,0,0.000238,12,16,0,0
3426,,,3426,St Paul Island Airport,St. Paul Island,United States,SNP,PASN,57.167301,-170.220001,63,-9,A,America/Anchorage,airport,OurAirports,,,,2,2,4,3,3,6,6,0.289807,0.303142,0,0.000497,0.000493,112,1,0.00089,3,7,1,0.003216
3427,,,3427,Cape Newenham LRRS Airport,Cape Newenham,United States,EHM,PAEH,58.6464,-162.063004,541,-9,A,America/Anchorage,airport,OurAirports,,,,0,0,0,0,0,0,0,0,0,0,0,0,10,0,0.000238,13,17,0,0
3428,,,3428,St George Airport,Point Barrow,United States,STG,PAPB,56.5783,-169.662003,125,-9,A,America/Anchorage,airport,OurAirports,,,,2,2,4,3,3,6,6,0.289807,0.303142,0,0.000497,0.000493,112,1,0.00089,3,7,1,0.003216
3429,,,3429,Iliamna Airport,Iliamna,United States,ILI,PAIL,59.754398,-154.910996,192,-9,A,America/Anchorage,airport,OurAirports,,,,1,1,2,1,1,2,6,0.289614,0.301992,0,0.000485,0.000482,112,0,0.000512,3,7,0,0.002882
3430,,,3430,Platinum Airport,Port Moller,United States,PTU,PAPM,59.011398,-161.820007,15,-9,A,America/Anchorage,airport,OurAirports,,,,0,0,0,0,0,0,0,0,0,0,0,0,11,0,0.000238,14,18,0,0
3431,,,3431,Big Mountain Airport,Big Mountain,United States,BMX,PABM,59.361198,-155.259003,663,-9,A,America/Anchorage,airport,OurAirports,,,,0,0,0,0,0,0,0,0,0,0,0,0,12,0,0.000238,15,19,0,0
3432,,,3432,Oscoda Wurtsmith Airport,Oscoda,United States,OSC,KOSC,44.451599,-83.394096,633,-5,A,America/New_York,airport,OurAirports,,,,0,0,0,0,0,0,0,0,0,0,0,0,13,0,0.000238,16,20,0,0
3433,,,3433,Marina Municipal Airport,Fort Ord,United States,OAR,KOAR,36.6819,-121.762001,137,-8,A,America/Los_Angeles,airport,OurAirports,,,,0,0,0,0,0,0,0,0,0,0,0,0,14,0,0.000238,17,21,0,0
3434,,,3434,Sacramento Mather Airport,Sacramento,United States,MHR,KMHR,38.553902,-121.297997,98,-8,A,America/Los_Angeles,airport,OurAirports,,,,0,0,0,0,0,0,0,0,0,0,0,0,15,0,0.000238,18,22,0,0
3435,,,3435,Bicycle Lake Army Air Field,Fort Irwin,United States,BYS,KBYS,35.280499,-116.629997,2350,-8,A,America/Los_Angeles,airport,OurAirports,,,,0,0,0,0,0,0,0,0,0,0,0,0,16,0,0.000238,19,23,0,0
3436,,,3436,Twentynine Palms (Self) Airport,Twenty Nine Palms,United States,\N,KNXP,34.2962,-116.162003,2051,-8,A,America/Los_Angeles,airport,OurAirports,,,,0,0,0,0,0,0,0,0,0,0,0,0,17,0,0.000238,20,24,0,0
3437,,,3437,Fort Smith Regional Airport,Fort Smith,United States,FSM,KFSM,35.336601,-94.367401,469,-6,A,America/Chicago,airport,OurAirports,,,,1,1,2,2,2,4,8,0.32855,0.365857,0,0.004256,0.004228,152,0,0.00035,3,7,0,0.02182
3438,,,3438,Merrill Field,Anchorage,United States,MRI,PAMR,61.213501,-149.843994,137,-9,A,America/Anchorage,airport,OurAirports,,,,0,0,0,0,0,0,0,0,0,0,0,0,18,0,0.000238,21,25,0,0
3439,,,3439,Grants-Milan Municipal Airport,Grants,United States,GNT,KGNT,35.167301,-107.902,6537,-7,A,America/Denver,airport,OurAirports,,,,0,0,0,0,0,0,0,0,0,0,0,0,19,0,0.000238,22,26,0,0
3440,,,3440,Ponca City Regional Airport,Ponca City,United States,PNC,KPNC,36.731998,-97.0998,1008,-6,A,America/Chicago,airport,OurAirports,,,,0,0,0,0,0,0,0,0,0,0,0,0,20,0,0.000238,23,27,0,0
3441,,,3441,Hunter Army Air Field,Hunter Aaf,United States,SVN,KSVN,32.009998,-81.145699,41,-5,A,America/New_York,airport,OurAirports,,,,0,0,0,0,0,0,0,0,0,0,0,0,21,0,0.000238,24,28,0,0
3442,,,3442,Grand Forks International Airport,Grand Forks,United States,GFK,KGFK,47.949299,-97.176102,845,-6,A,America/Chicago,airport,OurAirports,,,,5,5,10,5,5,10,7,0.357436,0.393306,902.290562,0.009003,0.009025,234,0.2,0.001039,3,7,0.2,0.047956
3443,,,3443,Grider Field,Pine Bluff,United States,PBF,KPBF,34.1731,-91.9356,206,-6,A,America/Chicago,airport,OurAirports,,,,0,0,0,0,0,0,0,0,0,0,0,0,22,0,0.000238,25,29,0,0
3444,,,3444,Whiting Field Naval Air Station - North,Milton,United States,NSE,KNSE,30.724199,-87.021896,199,-6,A,America/Chicago,airport,OurAirports,,,,0,0,0,0,0,0,0,0,0,0,0,0,23,0,0.000238,26,30,0,0
3445,,,3445,Hana Airport,Hana,United States,HNM,PHHN,20.795601,-156.014008,78,-10,A,Pacific/Honolulu,airport,OurAirports,,,,0,0,0,0,0,0,0,0,0,0,0,0,24,0,0.000238,27,31,0,0
3446,,,3446,Ernest A. Love Field,Prescott,United States,PRC,KPRC,34.654499,-112.419998,5045,-7,A,America/Phoenix,airport,OurAirports,,,,1,1,2,1,1,2,8,0.316134,0.345282,0,0.003452,0.003433,184,0,0.00034,3,7,0,0.017203
3447,,,3447,Trenton Mercer Airport,Trenton,United States,TTN,KTTN,40.276699,-74.813499,213,-5,A,America/New_York,airport,OurAirports,,,,14,14,28,14,14,28,8,0.345512,0.398155,873.64871,0.038159,0.038004,256,0.703297,0.001728,3,7,0.703297,0.187889
3448,,,3448,General Edward Lawrence Logan International Airport,Boston,United States,BOS,KBOS,42.3643,-71.005203,20,-5,A,America/New_York,airport,OurAirports,,,,70,69,139,146,143,289,7,0.455975,0.541582,11137.333248,0.146618,0.144124,256,0.377226,0.008951,3,7,0.375776,0.732682
3449,,,3449,Travis Air Force Base,Fairfield,United States,SUU,KSUU,38.262699,-121.927002,62,-8,A,America/Los_Angeles,airport,OurAirports,,,,0,0,0,0,0,0,0,0,0,0,0,0,25,0,0.000238,28,32,0,0
3450,,,3450,Griffiss International Airport,Rome,United States,RME,KRME,43.233799,-75.406998,504,-5,A,America/New_York,airport,OurAirports,,,,0,0,0,0,0,0,0,0,0,0,0,0,26,0,0.000238,29,33,0,0
3451,,,3451,Wendover Airport,Wendover,United States,ENV,KENV,40.7187,-114.030998,4237,-7,A,America/Denver,airport,OurAirports,,,,0,0,0,0,0,0,0,0,0,0,0,0,27,0,0.000238,30,34,0,0
3452,,,3452,Mobile Downtown Airport,Mobile,United States,BFM,KBFM,30.626801,-88.0681,26,-6,A,America/Chicago,airport,OurAirports,,,,0,0,0,0,0,0,0,0,0,0,0,0,28,0,0.000238,31,35,0,0
3453,,,3453,Metropolitan Oakland International Airport,Oakland,United States,OAK,KOAK,37.721298,-122.221001,9,-8,A,America/Los_Angeles,airport,OurAirports,,,,29,30,59,51,48,99,7,0.401662,0.462846,523.59241,0.059644,0.059413,184,0.460215,0.00336,3,7,0.456989,0.304224
3454,,,3454,Eppley Airfield,Omaha,United States,OMA,KOMA,41.3032,-95.894096,984,-6,A,America/Chicago,airport,OurAirports,,,,17,17,34,30,29,59,7,0.406162,0.458248,5.43024,0.062148,0.061076,184,0.921569,0.001948,3,7,0.921569,0.312291
3455,,,3455,Port Angeles Cgas Airport,Port Angeles,United States,\N,KNOW,48.141499,-123.414001,13,-8,A,America/Los_Angeles,airport,OurAirports,,,,0,0,0,0,0,0,0,0,0,0,0,0,29,0,0.000238,32,36,0,0
3456,,,3456,Kahului Airport,Kahului,United States,OGG,PHOG,20.8986,-156.429993,54,-10,N,Pacific/Honolulu,airport,OurAirports,,,,12,13,25,30,32,62,7,0.386667,0.434877,135.156759,0.029287,0.030834,184,0.717949,0.001574,3,7,0.711538,0.150255
3457,,,3457,Wichita Eisenhower National Airport,Wichita,United States,ICT,KICT,37.649899,-97.433098,1333,-6,A,America/Chicago,airport,OurAirports,,,,11,10,21,16,16,32,7,0.389436,0.43526,92.020671,0.036373,0.032349,152,0.636364,0.001383,3,7,0.636364,0.184291
3458,,,3458,Kansas City International Airport,Kansas City,United States,MCI,KMCI,39.2976,-94.713898,1026,-6,A,America/Chicago,airport,OurAirports,,,,40,41,81,73,80,153,7,0.442073,0.508632,1597.306591,0.114877,0.11636,256,0.687805,0.004395,3,7,0.682927,0.571731
3459,,,3459,Dane County Regional Truax Field,Madison,United States,MSN,KMSN,43.1399,-89.337502,887,-6,A,America/Chicago,airport,OurAirports,,,,10,10,20,14,14,28,7,0.392599,0.438134,0.876878,0.036656,0.03648,234,0.955556,0.001252,3,7,0.955556,0.185163
3460,,,3460,Dillingham Airport,Dillingham,United States,DLG,PADL,59.044701,-158.505005,81,-9,A,America/Anchorage,airport,OurAirports,,,,1,1,2,2,2,4,6,0.289614,0.301992,0,0.000485,0.000482,112,0,0.000512,3,7,0,0.002882
3461,,,3461,Boone County Airport,Harrison,United States,HRO,KHRO,36.261501,-93.154701,1365,-6,A,America/Chicago,airport,OurAirports,,,,2,2,4,2,2,4,8,0.30873,0.333596,0,0.004598,0.004575,256,1,0.000423,3,7,1,0.022412
3462,,,3462,Phoenix Sky Harbor International Airport,Phoenix,United States,PHX,KPHX,33.434299,-112.012001,1135,-7,N,America/Phoenix,airport,OurAirports,,,,77,77,154,223,218,441,6,0.482797,0.558199,8681.667354,0.15152,0.151373,184,0.337321,0.008935,3,7,0.333903,0.761326
3463,,,3463,Bangor International Airport,Bangor,United States,BGR,KBGR,44.8074,-68.828102,192,-5,A,America/New_York,airport,OurAirports,,,,6,6,12,8,8,16,8,0.336948,0.380339,24.316389,0.01517,0.015037,234,0.4,0.000829,3,7,0.4,0.076879
3464,,,3464,Fort Lauderdale Executive Airport,Fort Lauderdale,United States,FXE,KFXE,26.1973,-80.1707,13,-5,A,America/New_York,airport,OurAirports,,,,0,0,0,0,0,0,0,0,0,0,0,0,30,0,0.000238,33,37,0,0
3465,,,3465,East Texas Regional Airport,Longview,United States,GGG,KGGG,32.383999,-94.711502,365,-6,A,America/Chicago,airport,OurAirports,,,,1,1,2,2,2,4,8,0.32855,0.365857,0,0.004256,0.004228,152,0,0.00035,3,7,0,0.02182
3466,,,3466,Anderson Regional Airport,Andersen,United States,AND,KAND,34.494598,-82.709396,782,-5,A,America/New_York,airport,OurAirports,,,,0,0,0,0,0,0,0,0,0,0,0,0,31,0,0.000238,34,38,0,0
3467,,,3467,Spokane International Airport,Spokane,United States,GEG,KGEG,47.6199,-117.533997,2376,-8,A,America/Los_Angeles,airport,OurAirports,,,,8,8,16,13,13,26,7,0.367399,0.40844,0.475397,0.024202,0.02421,184,1,0.001095,3,7,0.982143,0.123754
3468,,,3468,North Perry Airport,Hollywood,United States,HWO,KHWO,26.0012,-80.2407,8,-5,A,America/New_York,airport,OurAirports,,,,0,0,0,0,0,0,0,0,0,0,0,0,32,0,0.000238,35,39,0,0
3469,,,3469,San Francisco International Airport,San Francisco,United States,SFO,KSFO,37.618999,-122.375,13,-8,A,America/Los_Angeles,airport,OurAirports,,,,70,70,140,150,148,298,7,0.454071,0.540816,6764.630939,0.133787,0.134444,184,0.315493,0.008549,3,7,0.31328,0.673361
3470,,,3470,Cut Bank International Airport,Cutbank,United States,CTB,KCTB,48.608398,-112.375999,3854,-7,A,America/Denver,airport,OurAirports,,,,0,0,0,0,0,0,0,0,0,0,0,0,33,0,0.000238,36,40,0,0
3471,,,3471,Acadiana Regional Airport,Louisiana,United States,ARA,KARA,30.0378,-91.883904,24,-6,A,America/Chicago,airport,OurAirports,,,,0,0,0,0,0,0,0,0,0,0,0,0,34,0,0.000238,37,41,0,0
3472,,,3472,Gainesville Regional Airport,Gainesville,United States,GNV,KGNV,29.6901,-82.271797,152,-5,A,America/New_York,airport,OurAirports,,,,4,4,8,8,8,16,8,0.326577,0.364056,0.034483,0.013302,0.013207,256,0.833333,0.000601,3,7,0.833333,0.065326
3473,,,3473,Memphis International Airport,Memphis,United States,MEM,KMEM,35.0424,-89.9767,341,-6,A,America/Chicago,airport,OurAirports,,,,30,31,61,47,51,98,7,0.414286,0.476256,1936.648901,0.086925,0.086476,256,0.647312,0.00342,3,7,0.646237,0.432691
3474,,,3474,Bisbee Douglas International Airport,Douglas,United States,DUG,KDUG,31.469,-109.603996,4154,-7,A,America/Phoenix,airport,OurAirports,,,,0,0,0,0,0,0,0,0,0,0,0,0,35,0,0.000238,38,42,0,0
3475,,,3475,Allen Army Airfield,Delta Junction,United States,BIG,PABI,63.994499,-145.722,1291,-9,A,America/Anchorage,airport,OurAirports,,,,0,0,0,0,0,0,0,0,0,0,0,0,36,0,0.000238,39,43,0,0
3476,,,3476,TSTC Waco Airport,Waco,United States,CNW,KCNW,31.6378,-97.074097,470,-6,A,America/Chicago,airport,OurAirports,,,,0,0,0,0,0,0,0,0,0,0,0,0,37,0,0.000238,40,44,0,0
3477,,,3477,Annette Island Airport,Annette Island,United States,ANN,PANT,55.0424,-131.572006,119,-9,A,America/Anchorage,airport,OurAirports,,,,0,0,0,0,0,0,0,0,0,0,0,0,38,0,0.000238,41,45,0,0
3478,,,3478,Caribou Municipal Airport,Caribou,United States,CAR,KCAR,46.871498,-68.017899,626,-5,A,America/New_York,airport,OurAirports,,,,0,0,0,0,0,0,0,0,0,0,0,0,39,0,0.000238,42,46,0,0
3479,,,3479,Little Rock Air Force Base,Jacksonville,United States,LRF,KLRF,34.916901,-92.149696,311,-6,A,America/Chicago,airport,OurAirports,,,,0,0,0,0,0,0,0,0,0,0,0,0,40,0,0.000238,43,47,0,0
3480,,,3480,Redstone Army Air Field,Redstone,United States,HUA,KHUA,34.678699,-86.684799,684,-6,A,America/Chicago,airport,OurAirports,,,,0,0,0,0,0,0,0,0,0,0,0,0,41,0,0.000238,44,48,0,0
3481,,,3481,Pope Field,Fort Bragg,United States,POB,KPOB,35.170898,-79.014503,217,-5,A,America/New_York,airport,OurAirports,,,,0,0,0,0,0,0,0,0,0,0,0,0,42,0,0.000238,45,49,0,0
3482,,,3482,Dalhart Municipal Airport,Dalhart,United States,DHT,KDHT,36.022598,-102.546997,3991,-6,A,America/Chicago,airport,OurAirports,,,,0,0,0,0,0,0,0,0,0,0,0,0,43,0,0.000238,46,50,0,0
3483,,,3483,DLF Airport,Del Rio,United States,DLF,KDLF,29.359501,-100.778002,1082,-6,A,America/Chicago,airport,OurAirports,,,,0,0,0,0,0,0,0,0,0,0,0,0,44,0,0.000238,47,51,0,0
3484,,,3484,Los Angeles International Airport,Los Angeles,United States,LAX,KLAX,33.942501,-118.407997,125,-8,A,America/Los_Angeles,airport,OurAirports,,,,81,82,163,303,291,594,7,0.461783,0.556141,7842.900931,0.151428,0.152281,184,0.297802,0.009803,3,7,0.294188,0.761712
3485,,,3485,Anniston Metropolitan Airport,Anniston,United States,ANB,KANB,33.5882,-85.858101,612,-6,A,America/Chicago,airport,OurAirports,,,,0,0,0,0,0,0,0,0,0,0,0,0,45,0,0.000238,48,52,0,0
3486,,,3486,Cleveland Hopkins International Airport,Cleveland,United States,CLE,KCLE,41.411701,-81.8498,791,-5,A,America/New_York,airport,OurAirports,,,,53,53,106,75,76,151,7,0.442974,0.518593,4880.856198,0.125854,0.125357,256,0.49492,0.006204,3,7,0.493469,0.626426
3487,,,3487,Dover Air Force Base,Dover,United States,DOV,KDOV,39.129501,-75.466003,24,-5,A,America/New_York,airport,OurAirports,,,,0,0,0,0,0,0,0,0,0,0,0,0,46,0,0.000238,49,53,0,0
3488,,,3488,Cincinnati Northern Kentucky International Airport,Cincinnati,United States,CVG,KCVG,39.048801,-84.667801,896,-5,A,America/New_York,airport,OurAirports,,,,41,41,82,60,59,119,7,0.438066,0.505375,891.654476,0.112721,0.112221,256,0.651219,0.004236,3,7,0.65,0.562131
3489,,,3489,Tipton Airport,Fort Meade,United States,FME,KFME,39.0854,-76.759399,150,-5,A,America/New_York,airport,OurAirports,,,,0,0,0,0,0,0,0,0,0,0,0,0,47,0,0.000238,50,54,0,0
3490,,,3490,China Lake Naws (Armitage Field) Airport,China Lake,United States,\N,KNID,35.685398,-117.692001,2283,-8,A,America/Los_Angeles,airport,OurAirports,,,,0,0,0,0,0,0,0,0,0,0,0,0,48,0,0.000238,51,55,0,0
3491,,,3491,Huron Regional Airport,Huron,United States,HON,KHON,44.385201,-98.2285,1289,-6,A,America/Chicago,airport,OurAirports,,,,1,1,2,3,3,6,8,0.25816,0.271949,0,0.000099,0.0001,49,0,0.000553,3,7,0,0.000783
3492,,,3492,Juneau International Airport,Juneau,United States,JNU,PAJN,58.355,-134.576004,21,-9,A,America/Anchorage,airport,OurAirports,,,,5,5,10,9,9,18,1,1,1,17,0,0,310,0.133333,0.002302,52,57,0.133333,0.001347
3493,,,3493,Lafayette Regional Airport,Lafayette,United States,LFT,KLFT,30.205299,-91.987602,42,-6,A,America/Chicago,airport,OurAirports,,,,2,2,4,3,3,6,8,0.330296,0.369305,0,0.008033,0.007988,152,1,0.000448,3,7,1,0.040789
3494,,,3494,Newark Liberty International Airport,Newark,United States,EWR,KEWR,40.692501,-74.168701,18,-5,A,America/New_York,airport,OurAirports,,,,70,71,141,105,106,211,7,0.455021,0.54254,1069.013182,0.15761,0.158804,256,0.412877,0.007116,3,7,0.407646,0.788532
3495,,,3495,Boise Air Terminal/Gowen Field,Boise,United States,BOI,KBOI,43.5644,-116.223,2871,-7,A,America/Denver,airport,OurAirports,,,,10,10,20,14,15,29,7,0.383598,0.428938,7.779939,0.031591,0.031531,184,0.933333,0.001308,3,7,0.922222,0.161204
3496,,,3496,Creech Air Force Base,Indian Springs,United States,INS,KINS,36.5872,-115.672997,3133,-8,A,America/Los_Angeles,airport,OurAirports,,,,0,0,0,0,0,0,0,0,0,0,0,0,50,0,0.000238,53,58,0,0
3497,,,3497,Garden City Regional Airport,Garden City,United States,GCK,KGCK,37.927502,-100.723999,2891,-6,A,America/Chicago,airport,OurAirports,,,,1,1,2,2,2,4,8,0.32855,0.365857,0,0.004256,0.004228,152,0,0.00035,3,7,0,0.02182
3498,,,3498,Minot International Airport,Minot,United States,MOT,KMOT,48.259399,-101.279999,1716,-6,A,America/Chicago,airport,OurAirports,,,,4,4,8,5,5,10,7,0.360697,0.396946,15.616348,0.012719,0.012712,184,0.666667,0.000694,3,7,0.666667,0.066114
3499,,,3499,Wheeler Army Airfield,Wahiawa,United States,HHI,PHHI,21.4835,-158.039993,837,-10,A,Pacific/Honolulu,airport,OurAirports,,,,0,0,0,0,0,0,0,0,0,0,0,0,51,0,0.000238,54,59,0,0
3500,,,3500,Maxwell Air Force Base,Montgomery,United States,MXF,KMXF,32.3829,-86.365799,171,-6,A,America/Chicago,airport,OurAirports,,,,0,0,0,0,0,0,0,0,0,0,0,0,52,0,0.000238,55,60,0,0
3501,,,3501,Robinson Army Air Field,Robinson,United States,\N,KRBM,34.850101,-92.300201,587,-6,A,America/Chicago,airport,OurAirports,,,,0,0,0,0,0,0,0,0,0,0,0,0,53,0,0.000238,56,61,0,0
3502,,,3502,Dallas Love Field,Dallas,United States,DAL,KDAL,32.847099,-96.851799,487,-6,A,America/Chicago,airport,OurAirports,,,,19,22,41,31,34,65,7,0.361296,0.411888,574.77804,0.028272,0.036293,152,0.294372,0.002359,3,7,0.285714,0.14127
3503,,,3503,Butts AAF (Fort Carson) Air Field,Fort Carson,United States,FCS,KFCS,38.678398,-104.757004,5838,-7,A,America/Denver,airport,OurAirports,,,,0,0,0,0,0,0,0,0,0,0,0,0,54,0,0.000238,57,62,0,0
3504,,,3504,Helena Regional Airport,Helena,United States,HLN,KHLN,46.6068,-111.983002,3877,-7,A,America/Denver,airport,OurAirports,,,,3,3,6,3,3,6,7,0.359207,0.394455,0,0.011249,0.011268,184,1,0.00059,3,7,1,0.058143
3505,,,3505,Miramar Marine Corps Air Station - Mitscher Field,Miramar,United States,NKX,KNKX,32.868401,-117.142998,477,-8,A,America/Los_Angeles,airport,OurAirports,,,,0,0,0,0,0,0,0,0,0,0,0,0,55,0,0.000238,58,63,0,0
3506,,,3506,Luke Air Force Base,Phoenix,United States,LUF,KLUF,33.535,-112.383003,1085,-7,A,America/Phoenix,airport,OurAirports,,,,0,0,0,0,0,0,0,0,0,0,0,0,56,0,0.000238,59,64,0,0
3507,,,3507,Hurlburt Field,Mary Esther,United States,\N,KHRT,30.427799,-86.689301,38,-6,A,America/Chicago,airport,OurAirports,,,,0,0,0,0,0,0,0,0,0,0,0,0,57,0,0.000238,60,65,0,0
3508,,,3508,Jack Northrop Field Hawthorne Municipal Airport,Hawthorne,United States,HHR,KHHR,33.922798,-118.334999,66,-8,A,America/Los_Angeles,airport,OurAirports,,,,0,0,0,0,0,0,0,0,0,0,0,0,58,0,0.000238,61,66,0,0
3509,,,3509,Houlton International Airport,Houlton,United States,HUL,KHUL,46.1231,-67.792099,489,-5,A,America/New_York,airport,OurAirports,,,,0,0,0,0,0,0,0,0,0,0,0,0,59,0,0.000238,62,67,0,0
3510,,,3510,Vance Air Force Base,Enid,United States,END,KEND,36.339199,-97.916496,1307,-6,A,America/Chicago,airport,OurAirports,,,,0,0,0,0,0,0,0,0,0,0,0,0,60,0,0.000238,63,68,0,0
3511,,,3511,Point Mugu Naval Air Station (Naval Base Ventura Co),Point Mugu,United States,NTD,KNTD,34.1203,-119.121002,13,-8,A,America/Los_Angeles,airport,OurAirports,,,,0,0,0,0,0,0,0,0,0,0,0,0,61,0,0.000238,64,69,0,0
3512,,,3512,Edwards Air Force Base,Edwards Afb,United States,EDW,KEDW,34.905399,-117.884003,2312,-8,A,America/Los_Angeles,airport,OurAirports,,,,0,0,0,0,0,0,0,0,0,0,0,0,62,0,0.000238,65,70,0,0
3513,,,3513,Lake Charles Regional Airport,Lake Charles,United States,LCH,KLCH,30.126101,-93.223297,15,-6,A,America/Chicago,airport,OurAirports,,,,2,2,4,3,3,6,8,0.330296,0.369305,0,0.008033,0.007988,152,1,0.000448,3,7,1,0.040789
3514,,,3514,Ellison Onizuka Kona International At Keahole Airport,Kona,United States,KOA,PHKO,19.738783,-156.045603,47,-10,N,Pacific/Honolulu,airport,OurAirports,,,,5,5,10,12,11,23,7,0.354523,0.390432,0,0.015463,0.015405,184,1,0.000772,3,7,1,0.078206
3515,,,3515,Myrtle Beach International Airport,Myrtle Beach,United States,MYR,KMYR,33.679699,-78.928299,25,-5,A,America/New_York,airport,OurAirports,,,,20,20,40,28,28,56,7,0.381914,0.43526,1129.9027,0.042453,0.042773,234,0.384211,0.002793,3,7,0.373684,0.216785
3516,,,3516,Lemoore Naval Air Station (Reeves Field) Airport,Lemoore,United States,NLC,KNLC,36.333,-119.952003,232,-8,A,America/Los_Angeles,airport,OurAirports,,,,0,0,0,0,0,0,0,0,0,0,0,0,63,0,0.000238,66,71,0,0
3517,,,3517,Nantucket Memorial Airport,Nantucket,United States,ACK,KACK,41.253101,-70.060204,47,-5,A,America/New_York,airport,OurAirports,,,,6,6,12,6,6,12,8,0.315217,0.347389,1112.966,0.004208,0.004266,256,0.4,0.0015,3,7,0.333333,0.022338
3518,,,3518,Felker Army Air Field,Fort Eustis,United States,FAF,KFAF,37.1325,-76.608803,12,-5,A,America/New_York,airport,OurAirports,,,,0,0,0,0,0,0,0,0,0,0,0,0,64,0,0.000238,67,72,0,0
3519,,,3519,Campbell AAF (Fort Campbell) Air Field,Hopkinsville,United States,HOP,KHOP,36.668598,-87.496201,573,-6,A,America/Chicago,airport,OurAirports,,,,0,0,0,0,0,0,0,0,0,0,0,0,65,0,0.000238,68,73,0,0
3520,,,3520,Ronald Reagan Washington National Airport,Washington,United States,DCA,KDCA,38.8521,-77.037697,15,-5,A,America/New_York,airport,OurAirports,,,,81,83,164,177,181,358,7,0.458861,0.554609,3664.185763,0.154957,0.156483,256,0.291214,0.008627,3,7,0.287247,0.775851
3521,,,3521,Patuxent River Naval Air Station (Trapnell Field),Patuxent River,United States,NHK,KNHK,38.285999,-76.411797,39,-5,A,America/New_York,airport,OurAirports,,,,0,0,0,0,0,0,0,0,0,0,0,0,66,0,0.000238,69,74,0,0
3522,,,3522,Palacios Municipal Airport,Palacios,United States,PSX,KPSX,28.727501,-96.250999,14,-6,A,America/Chicago,airport,OurAirports,,,,0,0,0,0,0,0,0,0,0,0,0,0,67,0,0.000238,70,75,0,0
3523,,,3523,Arkansas International Airport,Blytheville,United States,BYH,KBYH,35.964298,-89.944,254,-6,A,America/Chicago,airport,OurAirports,,,,0,0,0,0,0,0,0,0,0,0,0,0,68,0,0.000238,71,76,0,0
3524,,,3524,Atlantic City International Airport,Atlantic City,United States,ACY,KACY,39.4576,-74.577202,75,-5,A,America/New_York,airport,OurAirports,,,,9,9,18,10,10,20,7,0.36647,0.409398,2.109309,0.028135,0.028039,234,0.805556,0.001124,3,7,0.805556,0.140524
3525,,,3525,Tinker Air Force Base,Oklahoma City,United States,TIK,KTIK,35.4147,-97.386597,1291,-6,A,America/Chicago,airport,OurAirports,,,,0,0,0,0,0,0,0,0,0,0,0,0,69,0,0.000238,72,77,0,0
3526,,,3526,Elizabeth City Regional Airport & Coast Guard Air Station,Elizabeth City,United States,ECG,KECG,36.260601,-76.174599,12,-5,A,America/New_York,airport,OurAirports,,,,0,0,0,0,0,0,0,0,0,0,0,0,70,0,0.000238,73,78,0,0
3527,,,3527,Pueblo Memorial Airport,Pueblo,United States,PUB,KPUB,38.289101,-104.497002,4726,-7,A,America/Denver,airport,OurAirports,,,,1,1,2,1,1,2,7,0.346614,0.376639,0,0.0043,0.004263,184,0,0.000361,3,7,0,0.022241
3528,,,3528,Northern Maine Regional Airport at Presque Isle,Presque Isle,United States,PQI,KPQI,46.688999,-68.0448,534,-5,A,America/New_York,airport,OurAirports,,,,1,1,2,2,2,4,8,0.313401,0.340493,0,0.003267,0.003324,256,0,0.000348,3,7,0,0.016433
3530,,,3530,Gray Army Air Field,Fort Lewis,United States,GRF,KGRF,47.079201,-122.581001,300,-8,A,America/Los_Angeles,airport,OurAirports,,,,0,0,0,0,0,0,0,0,0,0,0,0,71,0,0.000238,74,79,0,0
3531,,,3531,Kodiak Airport,Kodiak,United States,ADQ,PADQ,57.75,-152.494003,78,-9,A,America/Anchorage,airport,OurAirports,,,,0,0,0,0,0,0,0,0,0,0,0,0,72,0,0.000238,75,80,0,0
3532,,,3532,Upolu Airport,Opolu,United States,UPP,PHUP,20.265301,-155.860001,96,-10,A,Pacific/Honolulu,airport,OurAirports,,,,0,0,0,0,0,0,0,0,0,0,0,0,73,0,0.000238,76,81,0,0
3533,,,3533,Fort Lauderdale Hollywood International Airport,Fort Lauderdale,United States,FLL,KFLL,26.072599,-80.152702,9,-5,A,America/New_York,airport,OurAirports,,,,57,57,114,113,111,224,7,0.445241,0.523574,2567.35326,0.131758,0.131232,256,0.466165,0.006023,3,7,0.464599,0.656091
3534,,,3534,Muskogee-Davis Regional Airport,Muskogee,United States,\N,KMKO,35.656502,-95.366699,611,-6,A,America/Chicago,airport,OurAirports,,,,0,0,0,0,0,0,0,0,0,0,0,0,74,0,0.000238,77,82,0,0
3535,,,3535,Falls International Airport,International Falls,United States,INL,KINL,48.5662,-93.403099,1185,-6,A,America/Chicago,airport,OurAirports,,,,2,2,4,2,2,4,7,0.337733,0.365145,0,0.004108,0.00414,234,1,0.000605,3,7,1,0.021382
3536,,,3536,Salt Lake City International Airport,Salt Lake City,United States,SLC,KSLC,40.788399,-111.977997,4227,-7,A,America/Denver,airport,OurAirports,,,,83,82,165,120,124,244,6,0.478548,0.559157,14546.126443,0.130494,0.129515,184,0.216007,0.011528,3,7,0.213855,0.662799
3537,,,3537,Childress Municipal Airport,Childress,United States,CDS,KCDS,34.4338,-100.288002,1954,-6,A,America/Chicago,airport,OurAirports,,,,0,0,0,0,0,0,0,0,0,0,0,0,75,0,0.000238,78,83,0,0
3538,,,3538,Keesler Air Force Base,Biloxi,United States,BIX,KBIX,30.4104,-88.9244,33,-6,A,America/Chicago,airport,OurAirports,,,,0,0,0,0,0,0,0,0,0,0,0,0,76,0,0.000238,79,84,0,0
3539,,,3539,Lawson Army Air Field (Fort Benning),Fort Benning,United States,LSF,KLSF,32.337299,-84.991302,232,-5,A,America/New_York,airport,OurAirports,,,,0,0,0,0,0,0,0,0,0,0,0,0,77,0,0.000238,80,85,0,0
3540,,,3540,Kingsville Naval Air Station,Kingsville,United States,NQI,KNQI,27.5072,-97.8097,50,-6,A,America/Chicago,airport,OurAirports,,,,0,0,0,0,0,0,0,0,0,0,0,0,78,0,0.000238,81,86,0,0
3541,,,3541,Marshall Army Air Field,Fort Riley,United States,FRI,KFRI,39.055302,-96.764503,1065,-6,A,America/Chicago,airport,OurAirports,,,,0,0,0,0,0,0,0,0,0,0,0,0,79,0,0.000238,82,87,0,0
3542,,,3542,Harrisburg International Airport,Harrisburg,United States,MDT,KMDT,40.193501,-76.763397,310,-5,A,America/New_York,airport,OurAirports,,,,10,10,20,15,15,30,7,0.394379,0.439666,164.406104,0.031658,0.031438,234,0.622222,0.001281,3,7,0.622222,0.160487
3543,,,3543,Lincoln Airport,Lincoln,United States,LNK,KLNK,40.851002,-96.759201,1219,-6,A,America/Chicago,airport,OurAirports,,,,3,3,6,3,3,6,7,0.369898,0.407674,0,0.012821,0.012765,234,1,0.000575,3,7,1,0.065942
3544,,,3544,Capital City Airport,Lansing,United States,LAN,KLAN,42.778702,-84.587402,861,-5,A,America/New_York,airport,OurAirports,,,,6,6,12,8,8,16,7,0.368332,0.407674,56.699671,0.019166,0.018997,234,0.6,0.000856,3,7,0.6,0.09723
3545,,,3545,Waimea Kohala Airport,Kamuela,United States,MUE,PHMU,20.001301,-155.667999,2671,-10,A,Pacific/Honolulu,airport,OurAirports,,,,0,0,0,0,0,0,0,0,0,0,0,0,80,0,0.000238,83,88,0,0
3546,,,3546,Massena International Richards Field,Massena,United States,MSS,KMSS,44.935799,-74.845596,215,-5,A,America/New_York,airport,OurAirports,,,,1,1,2,1,1,2,8,0.280103,0.299726,0,0.00129,0.001295,256,0,0.00035,3,7,0,0.00643
3547,,,3547,Hickory Regional Airport,Hickory,United States,HKY,KHKY,35.7411,-81.389503,1190,-5,A,America/New_York,airport,OurAirports,,,,0,0,0,0,0,0,0,0,0,0,0,0,81,0,0.000238,84,89,0,0
3548,,,3548,Albert Whitted Airport,St. Petersburg,United States,SPG,KSPG,27.7651,-82.626999,7,-5,A,America/New_York,airport,OurAirports,,,,0,0,0,0,0,0,0,0,0,0,0,0,82,0,0.000238,85,90,0,0
3549,,,3549,Page Field,Fort Myers,United States,FMY,KFMY,26.586599,-81.863297,17,-5,A,America/New_York,airport,OurAirports,,,,0,0,0,0,0,0,0,0,0,0,0,0,83,0,0.000238,86,91,0,0
3550,,,3550,George Bush Intercontinental Houston Airport,Houston,United States,IAH,KIAH,29.9844,-95.3414,97,-6,A,America/Chicago,airport,OurAirports,,,,99,100,199,134,135,269,7,0.46875,0.57549,8474.333318,0.165855,0.166638,152,0.22202,0.011607,3,7,0.219091,0.835994
3551,,,3551,Millinocket Municipal Airport,Millinocket,United States,\N,KMLT,45.6478,-68.6856,408,-5,A,America/New_York,airport,OurAirports,,,,0,0,0,0,0,0,0,0,0,0,0,0,84,0,0.000238,87,92,0,0
3552,,,3552,Andrews Air Force Base,Camp Springs,United States,ADW,KADW,38.810799,-76.866997,280,-5,A,America/New_York,airport,OurAirports,,,,0,0,0,0,0,0,0,0,0,0,0,0,85,0,0.000238,88,93,0,0
3553,,,3553,Smith Reynolds Airport,Winston-salem,United States,INT,KINT,36.133701,-80.222,969,-5,A,America/New_York,airport,OurAirports,,,,0,0,0,0,0,0,0,0,0,0,0,0,86,0,0.000238,89,94,0,0
3554,,,3554,Southern California Logistics Airport,Victorville,United States,VCV,KVCV,34.5975,-117.383003,2885,-8,A,America/Los_Angeles,airport,OurAirports,,,,0,0,0,0,0,0,0,0,0,0,0,0,87,0,0.000238,90,95,0,0
3555,,,3555,Bob Sikes Airport,Crestview,United States,CEW,KCEW,30.778799,-86.522102,213,-6,A,America/Chicago,airport,OurAirports,,,,0,0,0,0,0,0,0,0,0,0,0,0,88,0,0.000238,91,96,0,0
3556,,,3556,Wheeler Sack Army Air Field,Fort Drum,United States,\N,KGTB,44.055599,-75.719498,688,-5,A,America/New_York,airport,OurAirports,,,,0,0,0,0,0,0,0,0,0,0,0,0,89,0,0.000238,92,97,0,0
3557,,,3557,St Clair County International Airport,Port Huron,United States,PHN,KPHN,42.910999,-82.5289,650,-5,A,America/New_York,airport,OurAirports,,,,0,0,0,0,0,0,0,0,0,0,0,0,90,0,0.000238,93,98,0,0
3558,,,3558,Meadows Field,Bakersfield,United States,BFL,KBFL,35.433601,-119.056999,510,-8,A,America/Los_Angeles,airport,OurAirports,,,,5,5,10,6,6,12,7,0.362802,0.40116,0,0.018008,0.017923,184,1,0.000763,3,7,1,0.090792
3559,,,3559,El Paso International Airport,El Paso,United States,ELP,KELP,31.807199,-106.377998,3959,-7,A,America/Denver,airport,OurAirports,,,,11,12,23,19,21,40,7,0.390485,0.438134,23.489866,0.035327,0.038663,184,0.833333,0.001327,3,7,0.833333,0.177365
3560,,,3560,Valley International Airport,Harlingen,United States,HRL,KHRL,26.2285,-97.654404,36,-6,A,America/Chicago,airport,OurAirports,,,,6,6,12,8,7,15,8,0.324143,0.361949,1.074359,0.011816,0.011594,152,0.666667,0.000807,3,7,0.666667,0.057964
3561,,,3561,Columbia Metropolitan Airport,Columbia,United States,CAE,KCAE,33.938801,-81.119499,236,-5,A,America/New_York,airport,OurAirports,,,,9,9,18,13,13,26,7,0.373711,0.418402,0.319745,0.034154,0.033818,152,0.972222,0.001119,3,7,0.972222,0.170807
3562,,,3562,Davis Monthan Air Force Base,Tucson,United States,DMA,KDMA,32.1665,-110.883003,2704,-7,A,America/Phoenix,airport,OurAirports,,,,0,0,0,0,0,0,0,0,0,0,0,0,91,0,0.000238,94,99,0,0
3563,,,3563,Pensacola Naval Air Station/Forrest Sherman Field,Pensacola,United States,NPA,KNPA,30.352699,-87.318604,28,-6,A,America/Chicago,airport,OurAirports,,,,0,0,0,0,0,0,0,0,0,0,0,0,92,0,0.000238,95,100,0,0
3564,,,3564,Pensacola Regional Airport,Pensacola,United States,PNS,KPNS,30.4734,-87.1866,121,-6,A,America/Chicago,airport,OurAirports,,,,10,10,20,16,16,32,7,0.369898,0.414762,1.001969,0.034513,0.034239,256,0.911111,0.001178,3,7,0.911111,0.171402
3565,,,3565,Grand Forks Air Force Base,Red River,United States,RDR,KRDR,47.961102,-97.401199,913,-6,A,America/Chicago,airport,OurAirports,,,,0,0,0,0,0,0,0,0,0,0,0,0,93,0,0.000238,96,101,0,0
3566,,,3566,William P Hobby Airport,Houston,United States,HOU,KHOU,29.645399,-95.2789,46,-6,A,America/Chicago,airport,OurAirports,,,,46,48,94,69,78,147,7,0.417867,0.492157,798.491143,0.102745,0.104046,256,0.422872,0.004747,3,7,0.418883,0.509709
3567,,,3567,Buckley Air Force Base,Buckley,United States,BFK,KBKF,39.701698,-104.751999,5662,-7,A,America/Denver,airport,OurAirports,,,,0,0,0,0,0,0,0,0,0,0,0,0,94,0,0.000238,97,102,0,0
3568,,,3568,Northway Airport,Northway,United States,ORT,PAOR,62.9613,-141.929001,1715,-9,A,America/Anchorage,airport,OurAirports,,,,0,0,0,0,0,0,0,0,0,0,0,0,95,0,0.000238,98,103,0,0
3569,,,3569,"Warren ""Bud"" Woods Palmer Municipal Airport",Palmer,United States,PAQ,PAAQ,61.594898,-149.08901,242,-9,A,America/Anchorage,airport,OurAirports,,,,0,0,0,0,0,0,0,0,0,0,0,0,96,0,0.000238,99,104,0,0
3570,,,3570,Pittsburgh International Airport,Pittsburgh,United States,PIT,KPIT,40.491501,-80.232903,1203,-5,A,America/New_York,airport,OurAirports,,,,33,33,66,67,67,134,7,0.430693,0.49254,51.354618,0.106069,0.105614,256,0.854167,0.003412,3,7,0.854167,0.527382
3571,,,3571,Wiley Post Will Rogers Memorial Airport,Barrow,United States,BRW,PABR,71.285402,-156.766008,44,-9,A,America/Anchorage,airport,OurAirports,,,,4,4,8,4,4,8,4,0.45,0.62963,34,0,0,419,0.166667,0.002516,0,1,0.166667,0.001089
3572,,,3572,Ellington Airport,Houston,United States,EFD,KEFD,29.6073,-95.158798,32,-6,A,America/Chicago,airport,OurAirports,,,,0,0,0,0,0,0,0,0,0,0,0,0,97,0,0.000238,100,105,0,0
3573,,,3573,Whidbey Island Naval Air Station (Ault Field),Whidbey Island,United States,NUW,KNUW,48.351799,-122.655998,47,-8,A,America/Los_Angeles,airport,OurAirports,,,,0,0,0,0,0,0,0,0,0,0,0,0,98,0,0.000238,101,106,0,0
3574,,,3574,Alice International Airport,Alice,United States,ALI,KALI,27.7409,-98.026901,178,-6,A,America/Chicago,airport,OurAirports,,,,0,0,0,0,0,0,0,0,0,0,0,0,99,0,0.000238,102,107,0,0
3575,,,3575,Moody Air Force Base,Valdosta,United States,VAD,KVAD,30.9678,-83.193001,233,-5,A,America/New_York,airport,OurAirports,,,,0,0,0,0,0,0,0,0,0,0,0,0,100,0,0.000238,103,108,0,0
3576,,,3576,Miami International Airport,Miami,United States,MIA,KMIA,25.7932,-80.290604,8,-5,A,America/New_York,airport,OurAirports,,,,45,45,90,102,103,205,7,0.436309,0.506907,510.490007,0.118144,0.118329,256,0.6,0.00465,3,7,0.597475,0.590739
3577,,,3577,Seattle Tacoma International Airport,Seattle,United States,SEA,KSEA,47.449001,-122.308998,433,-8,A,America/Los_Angeles,airport,OurAirports,,,,35,31,66,103,97,200,6,0.443878,0.493448,2215.300424,0.094544,0.086505,184,0.660504,0.003926,3,7,0.656303,0.474695
3578,,,3578,Lovell Field,Chattanooga,United States,CHA,KCHA,35.035301,-85.203796,683,-5,A,America/New_York,airport,OurAirports,,,,7,7,14,11,11,22,7,0.373391,0.41572,67.193758,0.02139,0.021182,234,0.47619,0.000966,3,7,0.47619,0.10939
3579,,,3579,Igor I Sikorsky Memorial Airport,Stratford,United States,BDR,KBDR,41.163502,-73.126198,9,-5,A,America/New_York,airport,OurAirports,,,,0,0,0,0,0,0,0,0,0,0,0,0,101,0,0.000238,104,109,0,0
3580,,,3580,Jackson-Medgar Wiley Evers International Airport,Jackson,United States,JAN,KJAN,32.311199,-90.075897,346,-6,A,America/Chicago,airport,OurAirports,,,,8,8,16,13,13,26,7,0.368644,0.411697,2.313534,0.02898,0.028781,256,0.785714,0.001004,3,7,0.785714,0.14484
3581,,,3581,Scholes International At Galveston Airport,Galveston,United States,GLS,KGLS,29.265301,-94.860397,6,-6,A,America/Chicago,airport,OurAirports,,,,0,0,0,0,0,0,0,0,0,0,0,0,102,0,0.000238,105,110,0,0
3582,,,3582,Long Beach /Daugherty Field/ Airport,Long Beach,United States,LGB,KLGB,33.817699,-118.152,60,-8,A,America/Los_Angeles,airport,OurAirports,,,,12,12,24,18,18,36,7,0.367089,0.41093,9.695314,0.032066,0.032311,184,0.878788,0.001462,3,7,0.871212,0.162354
3583,,,3583,Dillingham Airfield,Dillingham,United States,HDH,PHDH,21.5795,-158.197006,14,-10,A,Pacific/Honolulu,airport,OurAirports,,,,0,0,0,0,0,0,0,0,0,0,0,0,103,0,0.000238,106,111,0,0
3584,,,3584,Williamsport Regional Airport,Williamsport,United States,IPT,KIPT,41.241798,-76.921097,529,-5,A,America/New_York,airport,OurAirports,,,,1,1,2,2,2,4,8,0.317055,0.347006,0,0.00372,0.003697,256,0,0.000332,3,7,0,0.018383
3585,,,3585,Indianapolis International Airport,Indianapolis,United States,IND,KIND,39.7173,-86.294403,797,-5,A,America/New_York,airport,OurAirports,,,,32,32,64,65,65,130,7,0.43112,0.492731,150.619567,0.10232,0.101822,256,0.820565,0.00336,3,7,0.820565,0.509517
3586,,,3586,Whiteman Air Force Base,Knobnoster,United States,SZL,KSZL,38.730301,-93.547897,870,-6,A,America/Chicago,airport,OurAirports,,,,0,0,0,0,0,0,0,0,0,0,0,0,104,0,0.000238,107,112,0,0
3587,,,3587,Akron Fulton International Airport,Akron,United States,AKC,KAKR,41.037498,-81.466904,1067,-5,A,America/New_York,airport,OurAirports,,,,0,0,0,0,0,0,0,0,0,0,0,0,105,0,0.000238,108,113,0,0
3588,,,3588,Greenwoodâ€“Leflore Airport,Greenwood,United States,GWO,KGWO,33.494301,-90.084702,162,-6,A,America/Chicago,airport,OurAirports,,,,0,0,0,0,0,0,0,0,0,0,0,0,106,0,0.000238,109,114,0,0
3589,,,3589,Westchester County Airport,White Plains,United States,HPN,KHPN,41.067001,-73.707603,439,-5,A,America/New_York,airport,OurAirports,,,,14,14,28,20,20,40,7,0.364322,0.410547,951.443634,0.033031,0.032882,256,0.409524,0.001946,3,7,0.409524,0.164994
3590,,,3590,Francis S Gabreski Airport,West Hampton Beach,United States,FOK,KFOK,40.8437,-72.631798,67,-5,A,America/New_York,airport,OurAirports,,,,0,0,0,0,0,0,0,0,0,0,0,0,107,0,0.000238,110,115,0,0
3591,,,3591,Jonesboro Municipal Airport,Jonesboro,United States,JBR,KJBR,35.831699,-90.6464,262,-6,A,America/Chicago,airport,OurAirports,,,,1,1,2,1,1,2,8,0.308949,0.333788,0,0.002904,0.002945,256,0,0.000349,3,7,0,0.014472
3592,,,3592,Tonopah Test Range Airport,Tonopah,United States,XSD,KTNX,37.798801,-116.780998,5549,-8,A,America/Los_Angeles,airport,OurAirports,,,,0,0,0,0,0,0,0,0,0,0,0,0,108,0,0.000238,111,116,0,0
3593,,,3593,Palm Beach County Park Airport,West Palm Beach,United States,LNA,KLNA,26.593,-80.085098,14,-5,A,America/New_York,airport,OurAirports,,,,0,0,0,0,0,0,0,0,0,0,0,0,109,0,0.000238,112,117,0,0
3594,,,3594,North Island Naval Air Station-Halsey Field,San Diego,United States,NZY,KNZY,32.6992,-117.214996,26,-8,A,America/Los_Angeles,airport,OurAirports,,,,0,0,0,0,0,0,0,0,0,0,0,0,110,0,0.000238,113,118,0,0
3595,,,3595,Biggs Army Air Field (Fort Bliss),El Paso,United States,BIF,KBIF,31.849501,-106.379997,3946,-7,A,America/Denver,airport,OurAirports,,,,0,0,0,0,0,0,0,0,0,0,0,0,111,0,0.000238,114,119,0,0
3596,,,3596,Yuma MCAS/Yuma International Airport,Yuma,United States,YUM,KNYL,32.656601,-114.606003,213,-7,N,America/Phoenix,airport,OurAirports,,,,2,2,4,3,3,6,7,0.331808,0.357482,0,0.006883,0.006867,184,1,0.000438,3,7,1,0.034338
3597,,,3597,Cavern City Air Terminal,Carlsbad,United States,CNM,KCNM,32.337502,-104.263,3295,-7,A,America/Denver,airport,OurAirports,,,,1,1,2,1,1,2,8,0.287129,0.307696,0,0.001374,0.001377,184,0,0.000348,3,7,0,0.00699
3598,,,3598,Duluth International Airport,Duluth,United States,DLH,KDLH,46.842098,-92.193604,1428,-6,A,America/Chicago,airport,OurAirports,,,,4,4,8,4,4,8,7,0.361897,0.399053,14.806942,0.012927,0.012904,234,0.666667,0.000676,3,7,0.666667,0.066907
3599,,,3599,Bethel Airport,Bethel,United States,BET,PABE,60.7798,-161.837997,126,-9,A,America/Anchorage,airport,OurAirports,,,,10,13,23,13,18,31,7,0.192648,0.217707,12777.5,0.000001,0,112,0.080882,0.006362,3,7,0.055147,0.002845
3600,,,3600,Bowman Field,Louisville,United States,LOU,KLOU,38.228001,-85.663696,546,-5,A,America/New_York,airport,OurAirports,,,,0,0,0,0,0,0,0,0,0,0,0,0,113,0,0.000238,115,120,0,0
3601,,,3601,Sierra Vista Municipal Libby Army Air Field,Fort Huachuca,United States,FHU,KFHU,31.588499,-110.344002,4719,-7,A,America/Phoenix,airport,OurAirports,,,,0,0,0,0,0,0,0,0,0,0,0,0,114,0,0.000238,116,121,0,0
3602,,,3602,Lihue Airport,Lihue,United States,LIH,PHLI,21.976,-159.339005,153,-10,N,Pacific/Honolulu,airport,OurAirports,,,,6,6,12,14,14,28,7,0.354812,0.391582,0,0.016162,0.016069,184,1,0.000875,3,7,1,0.081794
3603,,,3603,Terre Haute International Hulman Field,Terre Haute,United States,HUF,KHUF,39.4515,-87.307602,589,-5,A,America/New_York,airport,OurAirports,,,,0,0,0,0,0,0,0,0,0,0,0,0,115,0,0.000238,117,122,0,0
3604,,,3604,Havre City County Airport,Havre,United States,HVR,KHVR,48.542999,-109.762001,2591,-7,A,America/Denver,airport,OurAirports,,,,1,1,2,1,1,2,8,0.268519,0.285435,0,0.000356,0.000356,263,0,0.000481,3,7,0,0.00217
3605,,,3605,Grant County International Airport,Grant County Airport,United States,MWH,KMWH,47.207699,-119.32,1189,-8,A,America/Los_Angeles,airport,OurAirports,,,,0,0,0,0,0,0,0,0,0,0,0,0,116,0,0.000238,118,123,0,0
3606,,,3606,Edward F Knapp State Airport,Montpelier,United States,MPV,KMPV,44.203499,-72.562302,1166,-5,A,America/New_York,airport,OurAirports,,,,0,0,0,0,0,0,0,0,0,0,0,0,117,0,0.000238,119,124,0,0
3607,,,3607,San Nicolas Island Nolf Airport,San Nicolas Island,United States,\N,KNSI,33.239799,-119.458,506,-8,A,America/Los_Angeles,airport,OurAirports,,,,0,0,0,0,0,0,0,0,0,0,0,0,118,0,0.000238,120,125,0,0
3608,,,3608,Richmond International Airport,Richmond,United States,RIC,KRIC,37.505199,-77.319702,167,-5,A,America/New_York,airport,OurAirports,,,,18,18,36,37,37,74,7,0.39726,0.449436,21.852949,0.06131,0.061012,256,0.895425,0.001986,3,7,0.895425,0.305322
3609,,,3609,Shreveport Regional Airport,Shreveport,United States,SHV,KSHV,32.446602,-93.8256,258,-6,A,America/Chicago,airport,OurAirports,,,,4,4,8,5,5,10,7,0.368644,0.406716,0,0.016341,0.016258,152,1,0.000669,3,7,1,0.083459
3610,,,3610,Merle K (Mudhole) Smith Airport,Cordova,United States,CDV,PACV,60.491798,-145.477997,54,-9,A,America/Anchorage,airport,OurAirports,,,,0,0,0,0,0,0,0,0,0,0,0,0,119,0,0.000238,121,126,0,0
3611,,,3611,Norfolk International Airport,Norfolk,United States,ORF,KORF,36.8946,-76.201202,26,-5,A,America/New_York,airport,OurAirports,,,,19,17,36,38,36,74,7,0.388393,0.440049,23.323731,0.067056,0.059267,256,0.859649,0.002093,3,7,0.859649,0.334393
3612,,,3612,Southeast Texas Regional Airport,Beaumont,United States,BPT,KBPT,29.9508,-94.020699,15,-6,A,America/Chicago,airport,OurAirports,,,,1,1,2,2,2,4,8,0.32855,0.365857,0,0.004256,0.004228,152,0,0.00035,3,7,0,0.02182
3613,,,3613,Savannah Hilton Head International Airport,Savannah,United States,SAV,KSAV,32.127602,-81.202103,50,-5,A,America/New_York,airport,OurAirports,,,,12,12,24,17,17,34,7,0.379581,0.427214,0.602196,0.043998,0.043665,152,0.924242,0.001409,3,7,0.924242,0.219404
3614,,,3614,Hill Air Force Base,Ogden,United States,HIF,KHIF,41.12403,-111.973086,4789,-7,A,America/Denver,airport,OurAirports,,,,0,0,0,0,0,0,0,0,0,0,0,0,120,0,0.000238,122,127,0,0
3615,,,3615,Nome Airport,Nome,United States,OME,PAOM,64.512199,-165.445007,37,-9,A,America/Anchorage,airport,OurAirports,,,,12,13,25,19,20,39,7,0.230769,0.254302,8557,0.000012,0.000011,112,0.141026,0.005303,3,7,0.128205,0.003744
3616,,,3616,Scappoose Industrial Airpark,San Luis,United States,\N,KSPB,45.771,-122.862,58,-8,A,America/Los_Angeles,airport,OurAirports,,,,0,0,0,0,0,0,0,0,0,0,0,0,121,0,0.000238,123,128,0,0
3617,,,3617,St Petersburg Clearwater International Airport,St. Petersburg,United States,PIE,KPIE,27.9102,-82.687401,11,-5,A,America/New_York,airport,OurAirports,,,,31,31,62,31,31,62,8,0.315675,0.370186,643.865563,0.016253,0.016362,234,0,0.00398,3,7,0,0.090176
3618,,,3618,Menominee Regional Airport,Macon,United States,MNM,KMNM,45.126701,-87.638397,625,-6,A,America/Chicago,airport,OurAirports,,,,0,0,0,0,0,0,0,0,0,0,0,0,122,0,0.000238,124,129,0,0
3619,,,3619,Conroe-North Houston Regional Airport,Conroe,United States,CXO,KCXO,30.351801,-95.414497,245,-6,A,America/Chicago,airport,OurAirports,,,,0,0,0,0,0,0,0,0,0,0,0,0,123,0,0.000238,125,130,0,0
3620,,,3620,Deadhorse Airport,Deadhorse,United States,SCC,PASC,70.194702,-148.464996,65,-9,A,America/Anchorage,airport,OurAirports,,,,2,3,5,2,3,5,3,0.5,0.611111,34,0,0,419,0,0.001244,0,1,0,0.000553
3621,,,3621,San Antonio International Airport,San Antonio,United States,SAT,KSAT,29.533701,-98.469803,809,-6,A,America/Chicago,airport,OurAirports,,,,29,29,58,56,56,112,7,0.42439,0.484685,280.732542,0.089459,0.088755,256,0.746305,0.003106,3,7,0.742611,0.445696
3622,,,3622,Greater Rochester International Airport,Rochester,United States,ROC,KROC,43.1189,-77.672401,559,-5,A,America/New_York,airport,OurAirports,,,,16,16,32,25,25,50,7,0.380245,0.429896,1.481909,0.055907,0.055595,256,0.908333,0.001763,3,7,0.908333,0.277234
3623,,,3623,Patrick Air Force Base,Coco Beach,United States,COF,KCOF,28.2349,-80.6101,8,-5,A,America/New_York,airport,OurAirports,,,,0,0,0,0,0,0,0,0,0,0,0,0,124,0,0.000238,126,131,0,0
3624,,,3624,Teterboro Airport,Teterboro,United States,TEB,KTEB,40.850101,-74.060799,9,-5,A,America/New_York,airport,OurAirports,,,,1,1,2,1,1,2,9,0.239802,0.254295,0,0.000097,0.000095,256,0,0.000451,3,7,0,0.00079
3625,,,3625,Ellsworth Air Force Base,Rapid City,United States,RCA,KRCA,44.145,-103.103996,3276,-7,A,America/Denver,airport,OurAirports,,,,0,0,0,0,0,0,0,0,0,0,0,0,125,0,0.000238,127,132,0,0
3626,,,3626,Raleigh Durham International Airport,Raleigh-durham,United States,RDU,KRDU,35.877602,-78.787498,435,-5,A,America/New_York,airport,OurAirports,,,,36,36,72,75,74,149,7,0.435872,0.499436,157.648752,0.112337,0.111934,256,0.820635,0.003724,3,7,0.820635,0.559003
3627,,,3627,James M Cox Dayton International Airport,Dayton,United States,DAY,KDAY,39.902401,-84.219398,1009,-5,A,America/New_York,airport,OurAirports,,,,16,16,32,32,32,64,7,0.402405,0.453459,17.743686,0.0575,0.057026,256,0.9,0.001805,3,7,0.9,0.286464
3628,,,3628,Kenai Municipal Airport,Kenai,United States,ENA,PAEN,60.573101,-151.244995,99,-9,A,America/Anchorage,airport,OurAirports,,,,0,0,0,0,0,0,0,0,0,0,0,0,126,0,0.000238,128,133,0,0
3629,,,3629,Mc Alester Regional Airport,Mcalester,United States,MLC,KMLC,34.882401,-95.783501,770,-6,A,America/Chicago,airport,OurAirports,,,,0,0,0,0,0,0,0,0,0,0,0,0,127,0,0.000238,129,134,0,0
3630,,,3630,Niagara Falls International Airport,Niagara Falls,United States,IAG,KIAG,43.1073,-78.946198,589,-5,A,America/New_York,airport,OurAirports,,,,5,5,10,5,5,10,8,0.320796,0.356968,14.076932,0.005154,0.005142,234,0.1,0.000773,3,7,0.1,0.027894
3631,,,3631,Coulter Field,Bryan,United States,CFD,KCFD,30.7157,-96.331398,367,-6,A,America/Chicago,airport,OurAirports,,,,0,0,0,0,0,0,0,0,0,0,0,0,128,0,0.000238,130,135,0,0
3632,,,3632,Wright AAF (Fort Stewart)/Midcoast Regional Airport,Wright,United States,LIY,KLHW,31.889099,-81.562303,45,-5,A,America/New_York,airport,OurAirports,,,,0,0,0,0,0,0,0,0,0,0,0,0,129,0,0.000238,131,136,0,0
3633,,,3633,Newport News Williamsburg International Airport,Newport News,United States,PHF,KPHF,37.131901,-76.492996,42,-5,A,America/New_York,airport,OurAirports,,,,4,4,8,6,6,12,7,0.373391,0.411697,40.401118,0.01261,0.012502,256,0.5,0.000669,3,7,0.5,0.064426
3634,,,3634,Esler Regional Airport,Alexandria,United States,ESF,KESF,31.394899,-92.295799,112,-6,A,America/Chicago,airport,OurAirports,,,,0,0,0,0,0,0,0,0,0,0,0,0,130,0,0.000238,132,137,0,0
3635,,,3635,Altus Air Force Base,Altus,United States,LTS,KLTS,34.667099,-99.266701,1382,-6,A,America/Chicago,airport,OurAirports,,,,0,0,0,0,0,0,0,0,0,0,0,0,131,0,0.000238,133,138,0,0
3636,,,3636,Tucson International Airport,Tucson,United States,TUS,KTUS,32.1161,-110.941002,2643,-7,N,America/Phoenix,airport,OurAirports,,,,12,13,25,24,24,48,7,0.396175,0.444839,1.643903,0.043333,0.044536,184,0.948718,0.001489,3,7,0.948718,0.219729
3637,,,3637,Minot Air Force Base,Minot,United States,MIB,KMIB,48.4156,-101.358002,1667,-6,A,America/Chicago,airport,OurAirports,,,,0,0,0,0,0,0,0,0,0,0,0,0,132,0,0.000238,134,139,0,0
3638,,,3638,Beale Air Force Base,Marysville,United States,BAB,KBAB,39.136101,-121.436996,113,-8,A,America/Los_Angeles,airport,OurAirports,,,,0,0,0,0,0,0,0,0,0,0,0,0,133,0,0.000238,135,140,0,0
3639,,,3639,Greater Kankakee Airport,Kankakee,United States,IKK,KIKK,41.0714,-87.846298,630,-6,A,America/Chicago,airport,OurAirports,,,,0,0,0,0,0,0,0,0,0,0,0,0,134,0,0.000238,136,141,0,0
3640,,,3640,Seymour Johnson Air Force Base,Goldsboro,United States,GSB,KGSB,35.339401,-77.960602,109,-5,A,America/New_York,airport,OurAirports,,,,0,0,0,0,0,0,0,0,0,0,0,0,135,0,0.000238,137,142,0,0
3641,,,3641,Theodore Francis Green State Airport,Providence,United States,PVD,KPVD,41.732601,-71.420403,55,-5,A,America/New_York,airport,OurAirports,,,,16,16,32,25,24,49,7,0.382923,0.433153,8.048934,0.053991,0.053987,256,0.836601,0.001715,3,7,0.836601,0.266915
3642,,,3642,Salisbury Ocean City Wicomico Regional Airport,Salisbury,United States,SBY,KSBY,38.3405,-75.5103,52,-5,A,America/New_York,airport,OurAirports,,,,2,2,4,4,4,8,8,0.326332,0.36214,0,0.007731,0.007667,256,1,0.000432,3,7,1,0.038376
3643,,,3643,Rancho Murieta Airport,Rancho Murieta,United States,\N,KRIU,38.486801,-121.102997,141,-8,A,America/Los_Angeles,airport,OurAirports,,,,0,0,0,0,0,0,0,0,0,0,0,0,136,0,0.000238,138,143,0,0
3644,,,3644,Bob Hope Airport,Burbank,United States,BUR,KBUR,34.200699,-118.359001,778,-8,A,America/Los_Angeles,airport,OurAirports,,,,10,10,20,14,14,28,7,0.364322,0.406141,155.314854,0.024788,0.02483,184,0.688889,0.001372,3,7,0.688889,0.126654
3645,,,3645,Detroit Metropolitan Wayne County Airport,Detroit,United States,DTW,KDTW,42.212399,-83.353401,645,-5,A,America/New_York,airport,OurAirports,,,,112,113,225,165,166,331,7,0.478548,0.59254,9748.174501,0.179815,0.18169,234,0.203382,0.013179,3,7,0.200932,0.910736
3646,,,3646,Tampa International Airport,Tampa,United States,TPA,KTPA,27.9755,-82.533203,26,-5,A,America/New_York,airport,OurAirports,,,,61,62,123,127,126,253,7,0.446154,0.528172,1172.731991,0.139085,0.141386,256,0.442396,0.006195,3,7,0.440348,0.691387
3647,,,3647,Pembina Municipal Airport,Pembina,United States,PMB,KPMB,48.942501,-97.240799,795,-6,A,America/Chicago,airport,OurAirports,,,,0,0,0,0,0,0,0,0,0,0,0,0,137,0,0.000238,139,144,0,0
3648,,,3648,Polk Army Air Field,Fort Polk,United States,POE,KPOE,31.0448,-93.191704,330,-6,A,America/Chicago,airport,OurAirports,,,,0,0,0,0,0,0,0,0,0,0,0,0,138,0,0.000238,140,145,0,0
3649,,,3649,Eielson Air Force Base,Fairbanks,United States,EIL,PAEI,64.665703,-147.102005,547,-9,A,America/Anchorage,airport,OurAirports,,,,0,0,0,0,0,0,0,0,0,0,0,0,139,0,0.000238,141,146,0,0
3650,,,3650,Range Regional Airport,Hibbing,United States,HIB,KHIB,47.3866,-92.838997,1354,-6,A,America/Chicago,airport,OurAirports,,,,1,1,2,1,1,2,7,0.337471,0.363996,0,0.004014,0.004047,234,0,0.000348,3,7,0,0.020666
3651,,,3651,Angelina County Airport,Lufkin,United States,LFK,KLFK,31.233999,-94.75,296,-6,A,America/Chicago,airport,OurAirports,,,,0,0,0,0,0,0,0,0,0,0,0,0,140,0,0.000238,142,147,0,0
3652,,,3652,Midland International Airport,Midland,United States,MAF,KMAF,31.942499,-102.202003,2871,-6,A,America/Chicago,airport,OurAirports,,,,7,6,13,9,8,17,7,0.370213,0.410164,29.141371,0.019785,0.019228,152,0.666667,0.000958,3,7,0.666667,0.099816
3653,,,3653,Austin Straubel International Airport,Green Bay,United States,GRB,KGRB,44.4851,-88.129601,695,-6,A,America/Chicago,airport,OurAirports,,,,3,3,6,5,5,10,7,0.357143,0.392157,0,0.01264,0.012578,234,1,0.000552,3,7,1,0.064395
3654,,,3654,Ardmore Municipal Airport,Ardmore,United States,ADM,KADM,34.30301,-97.019634,777,-6,A,America/Chicago,airport,OurAirports,,,,0,0,0,0,0,0,0,0,0,0,0,0,141,0,0.000238,143,148,0,0
3655,,,3655,Mc Guire Air Force Base,Wrightstown,United States,WRI,KWRI,40.015598,-74.591698,131,-5,A,America/New_York,airport,OurAirports,,,,0,0,0,0,0,0,0,0,0,0,0,0,142,0,0.000238,144,149,0,0
3656,,,3656,Cherry Point MCAS /Cunningham Field/,Cherry Point,United States,\N,KNKT,34.900902,-76.880699,29,-5,A,America/New_York,airport,OurAirports,,,,0,0,0,0,0,0,0,0,0,0,0,0,143,0,0.000238,145,150,0,0
3657,,,3657,Emanuel County Airport,Santa Barbara,United States,\N,KSBO,32.6091,-82.369904,327,-5,A,America/New_York,airport,OurAirports,,,,0,0,0,0,0,0,0,0,0,0,0,0,144,0,0.000238,146,151,0,0
3658,,,3658,Augusta Regional At Bush Field,Bush Field,United States,AGS,KAGS,33.3699,-81.9645,144,-5,A,America/New_York,airport,OurAirports,,,,2,2,4,4,4,8,8,0.324385,0.359075,0,0.007559,0.007483,256,1,0.000427,3,7,1,0.03744
3659,,,3659,Sloulin Field International Airport,Williston,United States,ISN,KISN,48.177898,-103.641998,1982,-6,A,America/Chicago,airport,OurAirports,,,,2,2,4,2,2,4,7,0.355974,0.389475,0,0.008313,0.00831,184,1,0.00047,3,7,1,0.042907
3660,,,3660,Bill & Hillary Clinton National Airport/Adams Field,Little Rock,United States,LIT,KLIT,34.729401,-92.224297,262,-6,A,America/Chicago,airport,OurAirports,,,,15,16,31,25,25,50,7,0.403525,0.454034,169.846309,0.04903,0.051464,152,0.691667,0.001716,3,7,0.691667,0.246125
3661,,,3661,Stewart International Airport,Newburgh,United States,SWF,KSWF,41.504101,-74.104797,491,-5,A,America/New_York,airport,OurAirports,,,,5,5,10,6,6,12,8,0.333078,0.374592,10.158487,0.014587,0.014534,256,0.6,0.00072,3,7,0.6,0.07313
3662,,,3662,Baudette International Airport,Baudette,United States,BDE,KBDE,48.728401,-94.612198,1086,-6,A,America/Chicago,airport,OurAirports,,,,0,0,0,0,0,0,0,0,0,0,0,0,145,0,0.000238,147,152,0,0
3663,,,3663,Sacramento Executive Airport,Sacramento,United States,SAC,KSAC,38.512501,-121.492996,24,-8,A,America/Los_Angeles,airport,OurAirports,,,,0,0,0,0,0,0,0,0,0,0,0,0,146,0,0.000238,148,153,0,0
3664,,,3664,Homer Airport,Homer,United States,HOM,PAHO,59.645599,-151.477005,84,-9,A,America/Anchorage,airport,OurAirports,,,,0,0,0,0,0,0,0,0,0,0,0,0,147,0,0.000238,149,154,0,0
3665,,,3665,Waynesville-St. Robert Regional Forney field,Fort Leonardwood,United States,TBN,KTBN,37.7416,-92.140701,1159,-6,A,America/Chicago,airport,OurAirports,,,,1,1,2,1,1,2,8,0.308949,0.333788,0,0.002904,0.002945,256,0,0.000349,3,7,0,0.014472
3666,,,3666,Dobbins Air Reserve Base,Marietta,United States,MGE,KMGE,33.915401,-84.516296,1068,-5,A,America/New_York,airport,OurAirports,,,,0,0,0,0,0,0,0,0,0,0,0,0,148,0,0.000238,150,155,0,0
3667,,,3667,Fairchild Air Force Base,Spokane,United States,SKA,KSKA,47.615101,-117.655998,2461,-8,A,America/Los_Angeles,airport,OurAirports,,,,0,0,0,0,0,0,0,0,0,0,0,0,149,0,0.000238,151,156,0,0
3668,,,3668,Roscommon County - Blodgett Memorial Airport,Houghton Lake,United States,HTL,KHTL,44.359798,-84.671095,1150,-5,A,America/New_York,airport,OurAirports,,,,0,0,0,0,0,0,0,0,0,0,0,0,150,0,0.000238,152,157,0,0
3669,,,3669,Tyndall Air Force Base,Panama City,United States,PAM,KPAM,30.069599,-85.575401,17,-6,A,America/Chicago,airport,OurAirports,,,,0,0,0,0,0,0,0,0,0,0,0,0,151,0,0.000238,153,158,0,0
3670,,,3670,Dallas Fort Worth International Airport,Dallas-Fort Worth,United States,DFW,KDFW,32.896801,-97.038002,607,-6,A,America/Chicago,airport,OurAirports,,,,135,137,272,316,320,636,7,0.488764,0.618402,21382.322601,0.186522,0.18775,152,0.141799,0.017972,3,7,0.140189,0.947878
3671,,,3671,Melbourne International Airport,Melbourne,United States,MLB,KMLB,28.1028,-80.645302,33,-5,A,America/New_York,airport,OurAirports,,,,1,1,2,2,2,4,8,0.321508,0.354745,0,0.004012,0.00397,256,0,0.000339,3,7,0,0.019993
3672,,,3672,McChord Air Force Base,Tacoma,United States,TCM,KTCM,47.137699,-122.475998,322,-8,A,America/Los_Angeles,airport,OurAirports,,,,0,0,0,0,0,0,0,0,0,0,0,0,153,0,0.000238,154,159,0,0
3673,,,3673,Austin Bergstrom International Airport,Austin,United States,AUS,KAUS,30.1945,-97.669899,542,-6,A,America/Chicago,airport,OurAirports,,,,37,38,75,76,75,151,7,0.433699,0.499628,474.616873,0.105321,0.105968,184,0.648649,0.003884,3,7,0.64367,0.524328
3674,,,3674,Rickenbacker International Airport,Columbus,United States,LCK,KLCK,39.813801,-82.927803,744,-5,A,America/New_York,airport,OurAirports,,,,2,2,4,2,2,4,9,0.250288,0.278203,0.856712,0.00095,0.00094,234,0,0.000462,3,7,0,0.006401
3675,,,3675,Sawyer International Airport,Gwinn,United States,MQT,KSAW,46.3536,-87.395401,1221,-5,A,America/New_York,airport,OurAirports,,,,2,2,4,3,3,6,7,0.349398,0.382195,0,0.008626,0.008531,234,1,0.000442,3,7,1,0.043729
3676,,,3676,McGhee Tyson Airport,Knoxville,United States,TYS,KTYS,35.811001,-83.994003,981,-5,A,America/New_York,airport,OurAirports,,,,16,16,32,25,25,50,7,0.405028,0.455758,259.75471,0.050252,0.04988,234,0.633333,0.001853,3,7,0.633333,0.254073
3677,,,3677,Hood Army Air Field,Fort Hood,United States,HLR,KHLR,31.1387,-97.7145,924,-6,A,America/Chicago,airport,OurAirports,,,,0,0,0,0,0,0,0,0,0,0,0,0,154,0,0.000238,155,160,0,0
3678,,,3678,St Louis Lambert International Airport,St. Louis,United States,STL,KSTL,38.748697,-90.370003,618,-6,A,America/Chicago,airport,OurAirports,,,,55,54,109,99,106,205,7,0.446612,0.522425,6880.042454,0.129911,0.128089,256,0.477441,0.007034,3,7,0.475421,0.647016
3679,,,3679,Millville Municipal Airport,Millville,United States,MIV,KMIV,39.367802,-75.072197,85,-5,A,America/New_York,airport,OurAirports,,,,0,0,0,0,0,0,0,0,0,0,0,0,155,0,0.000238,156,161,0,0
3680,,,3680,Sheppard Air Force Base-Wichita Falls Municipal Airport,Wichita Falls,United States,SPS,KSPS,33.9888,-98.491898,1019,-6,A,America/Chicago,airport,OurAirports,,,,1,1,2,2,2,4,8,0.32855,0.365857,0,0.004256,0.004228,152,0,0.00035,3,7,0,0.02182
3681,,,3681,Cincinnati Municipal Airport Lunken Field,Cincinnati,United States,LUK,KLUK,39.103298,-84.418602,483,-5,A,America/New_York,airport,OurAirports,,,,0,0,0,0,0,0,0,0,0,0,0,0,156,0,0.000238,157,162,0,0
3682,,,3682,Hartsfield Jackson Atlanta International Airport,Atlanta,United States,ATL,KATL,33.6367,-84.428101,1026,-5,A,America/New_York,airport,OurAirports,,,,50,52,102,304,311,615,7,0.418269,0.495605,5384.671498,0.10299,0.105874,256,0.34917,0.006184,3,7,0.346908,0.514775
3683,,,3683,Castle Airport,Merced,United States,MER,KMER,37.380501,-120.568001,191,-8,A,America/Los_Angeles,airport,OurAirports,,,,0,0,0,0,0,0,0,0,0,0,0,0,157,0,0.000238,158,163,0,0
3684,,,3684,Mc Clellan Airfield,Sacramento,United States,MCC,KMCC,38.667599,-121.401001,77,-8,A,America/Los_Angeles,airport,OurAirports,,,,0,0,0,0,0,0,0,0,0,0,0,0,158,0,0.000238,159,164,0,0
3685,,,3685,Gerald R. Ford International Airport,Grand Rapids,United States,GRR,KGRR,42.880798,-85.522797,794,-5,A,America/New_York,airport,OurAirports,,,,19,19,38,25,25,50,7,0.409219,0.46208,394.616484,0.058401,0.058113,234,0.678363,0.002166,3,7,0.678363,0.294639
3686,,,3686,Winkler County Airport,Wink,United States,INK,KINK,31.7796,-103.200996,2822,-6,A,America/Chicago,airport,OurAirports,,,,0,0,0,0,0,0,0,0,0,0,0,0,159,0,0.000238,160,165,0,0
3687,,,3687,Fresno Yosemite International Airport,Fresno,United States,FAT,KFAT,36.776199,-119.718002,336,-8,A,America/Los_Angeles,airport,OurAirports,,,,7,7,14,14,14,28,7,0.376623,0.418593,0,0.02543,0.025356,184,1,0.000994,3,7,1,0.129307
3688,,,3688,Vero Beach Regional Airport,Vero Beach,United States,VRB,KVRB,27.6556,-80.417901,24,-5,A,America/New_York,airport,OurAirports,,,,0,0,0,0,0,0,0,0,0,0,0,0,160,0,0.000238,161,166,0,0
3689,,,3689,Imperial County Airport,Imperial,United States,IPL,KIPL,32.834202,-115.579002,-54,-8,A,America/Los_Angeles,airport,OurAirports,,,,2,2,4,2,2,4,8,0.304196,0.328462,0.2,0.003048,0.003071,184,0,0.000449,3,7,0,0.015442
3690,,,3690,Nashville International Airport,Nashville,United States,BNA,KBNA,36.1245,-86.6782,599,-6,A,America/Chicago,airport,OurAirports,,,,44,45,89,74,75,149,7,0.437186,0.507674,1794.829967,0.121183,0.12195,256,0.641414,0.004753,3,7,0.638384,0.602464
3691,,,3691,Laredo International Airport,Laredo,United States,LRD,KLRD,27.5438,-99.461601,508,-6,A,America/Chicago,airport,OurAirports,,,,3,3,6,4,4,8,8,0.34252,0.38532,0,0.012041,0.011995,152,1,0.000546,3,7,1,0.061218
3692,,,3692,Elmendorf Air Force Base,Anchorage,United States,EDF,PAED,61.250999,-149.807007,212,-9,A,America/Anchorage,airport,OurAirports,,,,0,0,0,0,0,0,0,0,0,0,0,0,161,0,0.000238,162,167,0,0
3693,,,3693,Ralph Wien Memorial Airport,Kotzebue,United States,OTZ,PAOT,66.884697,-162.598999,14,-9,A,America/Anchorage,airport,OurAirports,,,,10,9,19,18,17,35,2,0.909091,0.95,89.5,0,0,411,0.109091,0.006084,2,3,0.072727,0.002708
3694,,,3694,Altoona Blair County Airport,Altoona,United States,AOO,KAOO,40.296398,-78.32,1503,-5,A,America/New_York,airport,OurAirports,,,,2,2,4,2,2,4,8,0.312725,0.342868,0,0.003459,0.003385,256,1,0.000585,3,7,1,0.017129
3695,,,3695,Dyess Air Force Base,Abilene,United States,DYS,KDYS,32.420799,-99.854599,1789,-6,A,America/Chicago,airport,OurAirports,,,,0,0,0,0,0,0,0,0,0,0,0,0,162,0,0.000238,163,168,0,0
3696,,,3696,South Arkansas Regional At Goodwin Field,El Dorado,United States,ELD,KELD,33.221001,-92.813301,277,-6,A,America/Chicago,airport,OurAirports,,,,3,2,5,3,2,5,8,0.266218,0.286546,6.049995,0.002829,0.000686,256,0.333333,0.000688,3,7,0.333333,0.013569
3697,,,3697,La Guardia Airport,New York,United States,LGA,KLGA,40.777199,-73.872597,21,-5,A,America/New_York,airport,OurAirports,,,,62,63,125,130,131,261,7,0.435872,0.520317,1087.097245,0.124022,0.12503,256,0.341526,0.006367,3,7,0.33871,0.620691
3698,,,3698,Tallahassee Regional Airport,Tallahassee,United States,TLH,KTLH,30.3965,-84.350304,81,-5,A,America/New_York,airport,OurAirports,,,,6,6,12,12,12,24,8,0.344146,0.391067,0.034483,0.021105,0.020948,256,0.933333,0.000801,3,7,0.933333,0.104593
3699,,,3699,Dupage Airport,West Chicago,United States,DPA,KDPA,41.907799,-88.248596,759,-6,A,America/Chicago,airport,OurAirports,,,,0,0,0,0,0,0,0,0,0,0,0,0,163,0,0.000238,164,169,0,0
3700,,,3700,Waco Regional Airport,Waco,United States,ACT,KACT,31.6113,-97.230499,516,-6,A,America/Chicago,airport,OurAirports,,,,1,1,2,2,2,4,8,0.32855,0.365857,0,0.004256,0.004228,152,0,0.00035,3,7,0,0.02182
3701,,,3701,Augusta State Airport,Augusta,United States,AUG,KAUG,44.320599,-69.797302,352,-5,A,America/New_York,airport,OurAirports,,,,1,1,2,1,1,2,8,0.313401,0.340493,0,0.003267,0.003324,256,0,0.000348,3,7,0,0.016433
3702,,,3702,Hillsboro Municipal Airport,Hillsboro,United States,\N,KINJ,32.0835,-97.097198,686,-6,A,America/Chicago,airport,OurAirports,,,,0,0,0,0,0,0,0,0,0,0,0,0,164,0,0.000238,165,170,0,0
3703,,,3703,Jacksonville Naval Air Station (Towers Field),Jacksonville,United States,NIP,KNIP,30.2358,-81.680603,21,-5,A,America/New_York,airport,OurAirports,,,,0,0,0,0,0,0,0,0,0,0,0,0,165,0,0.000238,166,171,0,0
3704,,,3704,Mc Kellar Sipes Regional Airport,Jackson,United States,MKL,KMKL,35.599899,-88.915604,434,-6,A,America/Chicago,airport,OurAirports,,,,2,2,4,2,2,4,8,0.306122,0.331565,0.35512,0.004725,0.004718,256,0,0.000422,3,7,0,0.023065
3705,,,3705,Molokai Airport,Molokai,United States,MKK,PHMK,21.152901,-157.095993,454,-10,N,Pacific/Honolulu,airport,OurAirports,,,,0,0,0,0,0,0,0,0,0,0,0,0,166,0,0.000238,167,172,0,0
3706,,,3706,Godman Army Air Field,Fort Knox,United States,FTK,KFTK,37.907101,-85.972099,756,-5,A,America/New_York,airport,OurAirports,,,,0,0,0,0,0,0,0,0,0,0,0,0,167,0,0.000238,168,173,0,0
3707,,,3707,New River MCAS /H/ /Mccutcheon Fld/ Airport,Jacksonville,United States,\N,KNCA,34.708401,-77.439697,26,-5,A,America/New_York,airport,OurAirports,,,,0,0,0,0,0,0,0,0,0,0,0,0,168,0,0.000238,169,174,0,0
3708,,,3708,San Angelo Regional Mathis Field,San Angelo,United States,SJT,KSJT,31.3577,-100.496002,1919,-6,A,America/Chicago,airport,OurAirports,,,,1,1,2,2,2,4,8,0.32855,0.365857,0,0.004256,0.004228,152,0,0.00035,3,7,0,0.02182
3709,,,3709,Calexico International Airport,Calexico,United States,CXL,KCXL,32.669498,-115.513,4,-8,A,America/Los_Angeles,airport,OurAirports,,,,0,0,0,0,0,0,0,0,0,0,0,0,169,0,0.000238,170,175,0,0
3710,,,3710,Chico Municipal Airport,Chico,United States,CIC,KCIC,39.795399,-121.858002,240,-8,A,America/Los_Angeles,airport,OurAirports,,,,1,1,2,1,1,2,8,0.3125,0.339918,0,0.003048,0.003033,184,0,0.000342,3,7,0,0.015243
3711,,,3711,Burlington International Airport,Burlington,United States,BTV,KBTV,44.471901,-73.153297,335,-5,A,America/New_York,airport,OurAirports,,,,9,9,18,11,11,22,7,0.364017,0.405758,43.327257,0.029265,0.028955,256,0.666667,0.001102,3,7,0.666667,0.145997
3712,,,3712,Jacksonville International Airport,Jacksonville,United States,JAX,KJAX,30.494101,-81.687897,30,-5,A,America/New_York,airport,OurAirports,,,,24,24,48,42,43,85,7,0.41587,0.47185,28.225212,0.081727,0.081225,256,0.869565,0.002545,3,7,0.869565,0.406621
3713,,,3713,Durango La Plata County Airport,Durango,United States,DRO,KDRO,37.151501,-107.753998,6685,-7,A,America/Denver,airport,OurAirports,,,,3,3,6,5,5,10,7,0.363105,0.399819,0,0.011987,0.011926,152,1,0.000571,3,7,1,0.061197
3714,,,3714,Washington Dulles International Airport,Washington,United States,IAD,KIAD,38.9445,-77.455803,312,-5,A,America/New_York,airport,OurAirports,,,,77,79,156,96,100,196,7,0.454071,0.547904,8386.240016,0.145886,0.149184,256,0.285759,0.009148,3,7,0.281487,0.733048
3715,,,3715,Easterwood Field,College Station,United States,CLL,KCLL,30.5886,-96.3638,320,-6,A,America/Chicago,airport,OurAirports,,,,2,2,4,3,3,6,8,0.330296,0.369305,0,0.008033,0.007988,152,1,0.000448,3,7,1,0.040789
3716,,,3716,Felts Field,Spokane,United States,SFF,KSFF,47.6828,-117.322998,1953,-8,A,America/Los_Angeles,airport,OurAirports,,,,0,0,0,0,0,0,0,0,0,0,0,0,170,0,0.000238,171,176,0,0
3717,,,3717,General Mitchell International Airport,Milwaukee,United States,MKE,KMKE,42.947201,-87.896599,723,-6,A,America/Chicago,airport,OurAirports,,,,28,28,56,58,63,121,7,0.426471,0.484877,27.113327,0.092378,0.092052,256,0.899471,0.002979,3,7,0.89418,0.460556
3718,,,3718,Abilene Regional Airport,Abilene,United States,ABI,KABI,32.411301,-99.6819,1791,-6,A,America/Chicago,airport,OurAirports,,,,1,1,2,2,2,4,8,0.32855,0.365857,0,0.004256,0.004228,152,0,0.00035,3,7,0,0.02182
3719,,,3719,Columbia Regional Airport,Columbia,United States,COU,KCOU,38.8181,-92.219597,889,-6,A,America/Chicago,airport,OurAirports,,,,2,2,4,4,4,8,7,0.355102,0.391084,0,0.008763,0.008683,152,1,0.000454,3,7,1,0.044855
3720,,,3720,Portland International Airport,Portland,United States,PDX,KPDX,45.588699,-122.598,31,-8,A,America/Los_Angeles,airport,OurAirports,,,,34,34,68,81,78,159,7,0.427308,0.490432,1786.649142,0.085575,0.083937,184,0.576471,0.004112,3,7,0.572269,0.432583
3721,,,3721,Dade Collier Training and Transition Airport,Miami,United States,TNT,KTNT,25.861799,-80.897003,13,-5,A,America/New_York,airport,OurAirports,,,,0,0,0,0,0,0,0,0,0,0,0,0,171,0,0.000238,172,177,0,0
3722,,,3722,Palm Beach International Airport,West Palm Beach,United States,PBI,KPBI,26.683201,-80.095596,19,-5,A,America/New_York,airport,OurAirports,,,,19,19,38,37,37,74,7,0.390135,0.444455,67.419953,0.058905,0.058545,256,0.74269,0.002098,3,7,0.74269,0.292926
3723,,,3723,Fort Worth Meacham International Airport,Fort Worth,United States,FTW,KFTW,32.819801,-97.362396,710,-6,A,America/Chicago,airport,OurAirports,,,,0,0,0,0,0,0,0,0,0,0,0,0,172,0,0.000238,173,178,0,0
3724,,,3724,Ogdensburg International Airport,Ogdensburg,United States,OGS,KOGS,44.6819,-75.4655,297,-5,A,America/New_York,airport,OurAirports,,,,1,1,2,1,1,2,8,0.280103,0.299726,0,0.00129,0.001295,256,0,0.00035,3,7,0,0.00643
3725,,,3725,Cape Cod Coast Guard Air Station,Falmouth,United States,FMH,KFMH,41.658401,-70.5214,131,-5,A,America/New_York,airport,OurAirports,,,,0,0,0,0,0,0,0,0,0,0,0,0,173,0,0.000238,174,179,0,0
3726,,,3726,Boeing Field King County International Airport,Seattle,United States,BFI,KBFI,47.529999,-122.302002,21,-8,A,America/Los_Angeles,airport,OurAirports,,,,2,2,4,2,2,4,2,0.75,0.833333,5,0,0,387,0.333333,0.002457,175,180,0.166667,0.000505
3727,,,3727,Lackland Air Force Base,San Antonio,United States,SKF,KSKF,29.384199,-98.5811,691,-6,A,America/Chicago,airport,OurAirports,,,,0,0,0,0,0,0,0,0,0,0,0,0,174,0,0.000238,176,181,0,0
3728,,,3728,Daniel K Inouye International Airport,Honolulu,United States,HNL,PHNL,21.32062,-157.924228,13,-10,N,Pacific/Honolulu,airport,OurAirports,,,,22,22,44,50,52,102,7,0.400552,0.456333,1165.694255,0.054775,0.054351,184,0.604743,0.002784,3,7,0.602767,0.27713
3729,,,3729,Des Moines International Airport,Des Moines,United States,DSM,KDSM,41.534,-93.663101,958,-6,A,America/Chicago,airport,OurAirports,,,,16,16,32,25,26,51,7,0.404275,0.4548,304.904326,0.050733,0.050451,234,0.591667,0.001856,3,7,0.591667,0.257431
3730,,,3730,Coastal Carolina Regional Airport,New Bern,United States,EWN,KEWN,35.073002,-77.0429,18,-5,A,America/New_York,airport,OurAirports,,,,1,1,2,2,2,4,8,0.321508,0.354745,0,0.004012,0.00397,256,0,0.000339,3,7,0,0.019993
3731,,,3731,San Diego International Airport,San Diego,United States,SAN,KSAN,32.733601,-117.190002,17,-8,A,America/Los_Angeles,airport,OurAirports,,,,42,41,83,95,94,189,7,0.435872,0.503842,1053.970766,0.110693,0.109642,184,0.613511,0.004527,3,7,0.606866,0.554708
3732,,,3732,Monroe Regional Airport,Monroe,United States,MLU,KMLU,32.510899,-92.037697,79,-6,A,America/Chicago,airport,OurAirports,,,,2,2,4,3,3,6,8,0.330296,0.369305,0,0.008033,0.007988,152,1,0.000448,3,7,1,0.040789
3733,,,3733,Shaw Air Force Base,Sumter,United States,SSC,KSSC,33.972698,-80.470596,241,-5,A,America/New_York,airport,OurAirports,,,,0,0,0,0,0,0,0,0,0,0,0,0,175,0,0.000238,177,182,0,0
3734,,,3734,Ontario International Airport,Ontario,United States,ONT,KONT,34.056,-117.600998,944,-8,A,America/Los_Angeles,airport,OurAirports,,,,11,11,22,18,17,35,7,0.37859,0.423766,2.725276,0.032894,0.032918,184,0.854545,0.001385,3,7,0.854545,0.167598
3735,,,3735,Majors Airport,Greenvile,United States,GVT,KGVT,33.067799,-96.0653,535,-6,A,America/Chicago,airport,OurAirports,,,,0,0,0,0,0,0,0,0,0,0,0,0,176,0,0.000238,178,183,0,0
3736,,,3736,Roswell International Air Center Airport,Roswell,United States,ROW,KROW,33.301601,-104.530998,3671,-7,A,America/Denver,airport,OurAirports,,,,1,1,2,2,2,4,8,0.32855,0.365857,0,0.004256,0.004228,152,0,0.00035,3,7,0,0.02182
3737,,,3737,Coleman A. Young Municipal Airport,Detroit,United States,DET,KDET,42.409199,-83.009903,626,-5,A,America/New_York,airport,OurAirports,,,,0,0,0,0,0,0,0,0,0,0,0,0,177,0,0.000238,179,184,0,0
3738,,,3738,Brownsville South Padre Island International Airport,Brownsville,United States,BRO,KBRO,25.906799,-97.425903,22,-6,A,America/Chicago,airport,OurAirports,,,,2,2,4,3,3,6,8,0.330296,0.369305,0,0.008033,0.007988,152,1,0.000448,3,7,1,0.040789
3739,,,3739,Dothan Regional Airport,Dothan,United States,DHN,KDHN,31.321301,-85.4496,401,-6,A,America/Chicago,airport,OurAirports,,,,0,0,0,0,0,0,0,0,0,0,0,0,178,0,0.000238,180,185,0,0
3740,,,3740,Cape May County Airport,Wildwood,United States,WWD,KWWD,39.008499,-74.908302,23,-5,A,America/New_York,airport,OurAirports,,,,0,0,0,0,0,0,0,0,0,0,0,0,179,0,0.000238,181,186,0,0
3741,,,3741,Fallon Naval Air Station,Fallon,United States,NFL,KNFL,39.416599,-118.700996,3934,-8,A,America/Los_Angeles,airport,OurAirports,,,,0,0,0,0,0,0,0,0,0,0,0,0,180,0,0.000238,182,187,0,0
3742,,,3742,Selfridge Air National Guard Base Airport,Mount Clemens,United States,MTC,KMTC,42.613463,-82.836919,580,-5,A,America/New_York,airport,OurAirports,,,,0,0,0,0,0,0,0,0,0,0,0,0,181,0,0.000238,183,188,0,0
3743,,,3743,Four Corners Regional Airport,Farmington,United States,FMN,KFMN,36.741199,-108.230003,5506,-7,A,America/Denver,airport,OurAirports,,,,3,3,6,9,9,18,7,0.347444,0.379321,44.431789,0.004479,0.004443,184,0.333333,0.000866,3,7,0.333333,0.023639
3744,,,3744,Corpus Christi International Airport,Corpus Christi,United States,CRP,KCRP,27.770399,-97.501198,44,-6,A,America/Chicago,airport,OurAirports,,,,3,4,7,5,5,10,8,0.333333,0.374401,0.360627,0.010392,0.010766,152,0.666667,0.000532,3,7,0.666667,0.052215
3745,,,3745,Syracuse Hancock International Airport,Syracuse,United States,SYR,KSYR,43.111198,-76.1063,421,-5,A,America/New_York,airport,OurAirports,,,,14,14,28,21,21,42,7,0.380911,0.428938,65.545465,0.046594,0.046351,234,0.813187,0.001607,3,7,0.813187,0.232661
3746,,,3746,Naval Air Station Key West/Boca Chica Field,Key West,United States,NQX,KNQX,24.5758,-81.688904,6,-5,A,America/New_York,airport,OurAirports,,,,0,0,0,0,0,0,0,0,0,0,0,0,182,0,0.000238,184,189,0,0
3747,,,3747,Chicago Midway International Airport,Chicago,United States,MDW,KMDW,41.785999,-87.752403,620,-6,A,America/Chicago,airport,OurAirports,,,,64,63,127,121,128,249,7,0.437626,0.521658,965.051052,0.137656,0.137578,256,0.389385,0.00653,3,7,0.382688,0.68836
3748,,,3748,Norman Y. Mineta San Jose International Airport,San Jose,United States,SJC,KSJC,37.362598,-121.929001,62,-8,A,America/Los_Angeles,airport,OurAirports,,,,21,20,41,41,42,83,7,0.402778,0.456716,55.397682,0.056815,0.055948,184,0.714286,0.002419,3,7,0.714286,0.288614
3749,,,3749,Lea County Regional Airport,Hobbs,United States,HOB,KHOB,32.6875,-103.217003,3661,-7,A,America/Denver,airport,OurAirports,,,,1,1,2,1,1,2,8,0.319383,0.351489,0,0.003777,0.00376,152,0,0.000337,3,7,0,0.018969
3750,,,3750,Northeast Philadelphia Airport,Philadelphia,United States,PNE,KPNE,40.081902,-75.010597,120,-5,A,America/New_York,airport,OurAirports,,,,0,0,0,0,0,0,0,0,0,0,0,0,183,0,0.000238,185,190,0,0
3751,,,3751,Denver International Airport,Denver,United States,DEN,KDEN,39.861698,-104.672997,5431,-7,A,America/Denver,airport,OurAirports,,,,146,147,293,332,319,651,6,0.529842,0.64249,37621.101631,0.188054,0.18967,184,0.12631,0.021187,3,7,0.125207,0.958432
3752,,,3752,Philadelphia International Airport,Philadelphia,United States,PHL,KPHL,39.871899,-75.241096,36,-5,A,America/New_York,airport,OurAirports,,,,86,87,173,205,207,412,7,0.463753,0.561505,5854.240162,0.163099,0.164097,256,0.291797,0.009587,3,7,0.288793,0.817406
3753,,,3753,Sioux Gateway Col. Bud Day Field,Sioux City,United States,SUX,KSUX,42.402599,-96.384399,1098,-6,A,America/Chicago,airport,OurAirports,,,,1,1,2,2,2,4,7,0.343874,0.374992,0,0.004507,0.004455,234,0,0.000343,3,7,0,0.023035
3754,,,3754,Middle Georgia Regional Airport,Macon,United States,MCN,KMCN,32.692799,-83.6492,354,-5,A,America/New_York,airport,OurAirports,,,,2,2,4,2,2,4,8,0.318448,0.349496,0,0.005803,0.00574,256,1,0.000429,3,7,1,0.028376
3755,,,3755,Truth Or Consequences Municipal Airport,Truth Or Consequences,United States,TCS,KTCS,33.2369,-107.272003,4853,-7,A,America/Denver,airport,OurAirports,,,,0,0,0,0,0,0,0,0,0,0,0,0,185,0,0.000238,186,191,0,0
3756,,,3756,Palmdale Regional/USAF Plant 42 Airport,Palmdale,United States,PMD,KPMD,34.629398,-118.084999,2543,-8,A,America/Los_Angeles,airport,OurAirports,,,,0,0,0,0,0,0,0,0,0,0,0,0,186,0,0.000238,187,192,0,0
3757,,,3757,Randolph Air Force Base,San Antonio,United States,RND,KRND,29.529699,-98.2789,761,-6,A,America/Chicago,airport,OurAirports,,,,0,0,0,0,0,0,0,0,0,0,0,0,187,0,0.000238,188,193,0,0
3758,,,3758,El Centro Naval Air Facility,El Centro,United States,NJK,KNJK,32.829201,-115.671997,-42,-8,A,America/Los_Angeles,airport,OurAirports,,,,0,0,0,0,0,0,0,0,0,0,0,0,188,0,0.000238,189,194,0,0
3759,,,3759,John Glenn Columbus International Airport,Columbus,United States,CMH,KCMH,39.998001,-82.891899,815,-5,A,America/New_York,airport,OurAirports,,,,30,30,60,62,60,122,7,0.42522,0.485835,45.316449,0.098652,0.097819,256,0.823656,0.003147,3,7,0.822581,0.491146
3760,,,3760,Drake Field,Fayetteville,United States,FYV,KFYV,36.0051,-94.170097,1251,-6,A,America/Chicago,airport,OurAirports,,,,0,0,0,0,0,0,0,0,0,0,0,0,189,0,0.000238,190,195,0,0
3761,,,3761,Henry Post Army Air Field (Fort Sill),Fort Sill,United States,FSI,KFSI,34.649799,-98.402199,1189,-6,A,America/Chicago,airport,OurAirports,,,,0,0,0,0,0,0,0,0,0,0,0,0,190,0,0.000238,191,196,0,0
3762,,,3762,Princeton Municipal Airport,Princeton,United States,\N,KPNM,45.559898,-93.6082,980,-6,A,America/Chicago,airport,OurAirports,,,,0,0,0,0,0,0,0,0,0,0,0,0,191,0,0.000238,192,197,0,0
3763,,,3763,Wright-Patterson Air Force Base,Dayton,United States,FFO,KFFO,39.826099,-84.048302,823,-5,A,America/New_York,airport,OurAirports,,,,0,0,0,0,0,0,0,0,0,0,0,0,192,0,0.000238,193,198,0,0
3764,,,3764,Edward G. Pitka Sr Airport,Galena,United States,GAL,PAGA,64.736198,-156.936997,153,-9,A,America/Anchorage,airport,OurAirports,,,,5,3,8,5,3,8,2,0.714286,0.8,21,0,0,419,0.133333,0.002204,0,199,0.1,0.001269
3765,,,3765,Chandler Municipal Airport,Chandler,United States,\N,KCHD,33.2691,-111.810997,1243,-7,A,America/Phoenix,airport,OurAirports,,,,0,0,0,0,0,0,0,0,0,0,0,0,193,0,0.000238,194,200,0,0
3766,,,3766,Mineral Wells Airport,Mineral Wells,United States,MWL,KMWL,32.781601,-98.060204,974,-6,A,America/Chicago,airport,OurAirports,,,,0,0,0,0,0,0,0,0,0,0,0,0,194,0,0.000238,195,201,0,0
3767,,,3767,Mc Connell Air Force Base,Wichita,United States,IAB,KIAB,37.621899,-97.268204,1371,-6,A,America/Chicago,airport,OurAirports,,,,0,0,0,0,0,0,0,0,0,0,0,0,195,0,0.000238,196,202,0,0
3768,,,3768,New Orleans NAS JRB/Alvin Callender Field,New Orleans,United States,NBG,KNBG,29.8253,-90.035004,2,-6,A,America/Chicago,airport,OurAirports,,,,0,0,0,0,0,0,0,0,0,0,0,0,196,0,0.000238,197,203,0,0
3769,,,3769,Beaufort County Airport,Beaufort,United States,BFT,KARW,32.412201,-80.634399,10,-5,A,America/New_York,airport,OurAirports,,,,0,0,0,0,0,0,0,0,0,0,0,0,197,0,0.000238,198,204,0,0
3770,,,3770,Texarkana Regional Webb Field,Texarkana,United States,TXK,KTXK,33.453701,-93.990997,390,-6,A,America/Chicago,airport,OurAirports,,,,1,1,2,2,2,4,8,0.32855,0.365857,0,0.004256,0.004228,152,0,0.00035,3,7,0,0.02182
3771,,,3771,Plattsburgh International Airport,Plattsburgh,United States,PBG,KPBG,44.650902,-73.468102,234,-5,A,America/New_York,airport,OurAirports,,,,5,5,10,7,7,14,8,0.329296,0.368079,59.545321,0.008161,0.008213,234,0.3,0.000781,3,7,0.3,0.042575
3772,,,3772,Phillips Army Air Field,Aberdeen,United States,APG,KAPG,39.466202,-76.1688,57,-5,A,America/New_York,airport,OurAirports,,,,0,0,0,0,0,0,0,0,0,0,0,0,198,0,0.000238,199,205,0,0
3773,,,3773,Tucumcari Municipal Airport,Tucumcari,United States,TCC,KTCC,35.1828,-103.602997,4065,-7,A,America/Denver,airport,OurAirports,,,,0,0,0,0,0,0,0,0,0,0,0,0,199,0,0.000238,200,206,0,0
3774,,,3774,Ted Stevens Anchorage International Airport,Anchorage,United States,ANC,PANC,61.1744,-149.996002,152,-9,A,America/Anchorage,airport,OurAirports,,,,16,16,32,31,31,62,5,0.407303,0.442261,37048,0.021259,0.021412,112,0.141667,0.005153,3,7,0.141667,0.112397
3775,,,3775,Robert Gray  Army Air Field Airport,Killeen,United States,GRK,KGRK,31.0672,-97.828903,1015,-6,A,America/Chicago,airport,OurAirports,,,,2,2,4,3,3,6,8,0.330296,0.369305,0,0.008033,0.007988,152,1,0.000448,3,7,1,0.040789
3776,,,3776,Black Rock Airport,Zuni Pueblo,United States,\N,KZUN,35.083199,-108.792,6454,-7,A,America/Denver,airport,OurAirports,,,,0,0,0,0,0,0,0,0,0,0,0,0,200,0,0.000238,201,207,0,0
3777,,,3777,Bellingham International Airport,Bellingham,United States,BLI,KBLI,48.792801,-122.538002,170,-8,A,America/Los_Angeles,airport,OurAirports,,,,6,6,12,7,7,14,8,0.332569,0.373251,10.257366,0.012549,0.012558,184,0.666667,0.000863,3,7,0.666667,0.064362
3778,,,3778,Millington-Memphis Airport,Millington,United States,NQA,KNQA,35.356701,-89.8703,320,-6,A,America/Chicago,airport,OurAirports,,,,0,0,0,0,0,0,0,0,0,0,0,0,201,0,0.000238,202,208,0,0
3779,,,3779,Elkins-Randolph Co-Jennings Randolph Field,Elkins,United States,EKN,KEKN,38.8894,-79.857101,1987,-5,A,America/New_York,airport,OurAirports,,,,0,0,0,0,0,0,0,0,0,0,0,0,202,0,0.000238,203,209,0,0
3780,,,3780,Hartford Brainard Airport,Hartford,United States,HFD,KHFD,41.736698,-72.649399,18,-5,A,America/New_York,airport,OurAirports,,,,0,0,0,0,0,0,0,0,0,0,0,0,203,0,0.000238,204,210,0,0
3781,,,3781,North Central State Airport,Smithfield,United States,SFZ,KSFZ,41.920799,-71.491402,441,-5,A,America/New_York,airport,OurAirports,,,,0,0,0,0,0,0,0,0,0,0,0,0,204,0,0.000238,205,211,0,0
3782,,,3782,Mobile Regional Airport,Mobile,United States,MOB,KMOB,30.6912,-88.242798,219,-6,A,America/Chicago,airport,OurAirports,,,,4,4,8,6,6,12,7,0.362802,0.402386,0,0.016552,0.016413,152,1,0.000654,3,7,1,0.083818
3783,,,3783,Moffett Federal Airfield,Mountain View,United States,NUQ,KNUQ,37.4161,-122.049004,32,-8,A,America/Los_Angeles,airport,OurAirports,,,,0,0,0,0,0,0,0,0,0,0,0,0,205,0,0.000238,206,212,0,0
3784,,,3784,Santa Fe Municipal Airport,Santa Fe,United States,SAF,KSAF,35.6171,-106.088997,6348,-7,A,America/Denver,airport,OurAirports,,,,3,3,6,6,6,12,7,0.364627,0.401735,0,0.012008,0.011924,184,1,0.000574,3,7,1,0.061264
3785,,,3785,Barking Sands Airport,Barking Sands,United States,BKH,PHBK,22.0228,-159.785004,23,-10,A,Pacific/Honolulu,airport,OurAirports,,,,0,0,0,0,0,0,0,0,0,0,0,0,206,0,0.000238,207,213,0,0
3786,,,3786,Beauregard Regional Airport,Deridder,United States,DRI,KDRI,30.831699,-93.339897,202,-6,A,America/Chicago,airport,OurAirports,,,,0,0,0,0,0,0,0,0,0,0,0,0,207,0,0.000238,208,214,0,0
3787,,,3787,Bradshaw Army Airfield,Bradshaw Field,United States,BSF,PHSF,19.760099,-155.554001,6190,-10,A,Pacific/Honolulu,airport,OurAirports,,,,0,0,0,0,0,0,0,0,0,0,0,0,208,0,0.000238,209,215,0,0
3788,,,3788,Nogales International Airport,Nogales,United States,OLS,KOLS,31.4177,-110.848,3955,-7,A,America/Phoenix,airport,OurAirports,,,,0,0,0,0,0,0,0,0,0,0,0,0,209,0,0.000238,210,216,0,0
3789,,,3789,Mac Dill Air Force Base,Tampa,United States,MCF,KMCF,27.8493,-82.521202,14,-5,A,America/New_York,airport,OurAirports,,,,0,0,0,0,0,0,0,0,0,0,0,0,210,0,0.000238,211,217,0,0
3790,,,3790,Scott AFB/Midamerica Airport,Belleville,United States,BLV,KBLV,38.5452,-89.835197,459,-6,A,America/Chicago,airport,OurAirports,,,,1,1,2,1,1,2,9,0.249141,0.274946,0,0.000579,0.000572,234,0,0.000353,3,7,0,0.003808
3791,,,3791,Opa-locka Executive Airport,Miami,United States,OPF,KOPF,25.907,-80.278397,8,-5,A,America/New_York,airport,OurAirports,,,,0,0,0,0,0,0,0,0,0,0,0,0,211,0,0.000238,212,218,0,0
3792,,,3792,Del Rio International Airport,Del Rio,United States,DRT,KDRT,29.374201,-100.927002,1002,-6,A,America/Chicago,airport,OurAirports,,,,0,0,0,0,0,0,0,0,0,0,0,0,212,0,0.000238,213,219,0,0
3793,,,3793,Southwest Florida International Airport,Fort Myers,United States,RSW,KRSW,26.5362,-81.755203,30,-5,A,America/New_York,airport,OurAirports,,,,31,31,62,61,59,120,7,0.417466,0.478938,296.687087,0.084554,0.084348,256,0.623656,0.003297,3,7,0.623656,0.421665
3794,,,3794,King Salmon Airport,King Salmon,United States,AKN,PAKN,58.6768,-156.649002,73,-9,A,America/Anchorage,airport,OurAirports,,,,1,1,2,2,2,4,6,0.289614,0.301992,0,0.000485,0.000482,112,0,0.000512,3,7,0,0.002882
3795,,,3795,Muir Army Air Field (Fort Indiantown Gap) Airport,Muir,United States,\N,KMUI,40.434799,-76.569397,488,-5,A,America/New_York,airport,OurAirports,,,,0,0,0,0,0,0,0,0,0,0,0,0,213,0,0.000238,214,220,0,0
3796,,,3796,Kapalua Airport,Lahania-kapalua,United States,JHM,PHJH,20.9629,-156.673004,256,-10,N,Pacific/Honolulu,airport,OurAirports,,,,0,0,0,0,0,0,0,0,0,0,0,0,214,0,0.000238,215,221,0,0
3797,,,3797,John F Kennedy International Airport,New York,United States,JFK,KJFK,40.639801,-73.7789,13,-5,A,America/New_York,airport,OurAirports,,,,55,55,110,144,144,288,7,0.444331,0.521467,842.058791,0.130174,0.13133,184,0.485522,0.006107,3,7,0.479798,0.656394
3798,,,3798,Homestead ARB Airport,Homestead,United States,HST,KHST,25.4886,-80.383598,5,-5,A,America/New_York,airport,OurAirports,,,,0,0,0,0,0,0,0,0,0,0,0,0,215,0,0.000238,216,222,0,0
3799,,,3799,Riverside Municipal Airport,Riverside,United States,RAL,KRAL,33.9519,-117.445,819,-8,A,America/Los_Angeles,airport,OurAirports,,,,0,0,0,0,0,0,0,0,0,0,0,0,216,0,0.000238,217,223,0,0
3800,,,3800,Sherman Army Air Field,Fort Leavenworth,United States,FLV,KFLV,39.368301,-94.914703,772,-6,A,America/Chicago,airport,OurAirports,,,,0,0,0,0,0,0,0,0,0,0,0,0,217,0,0.000238,218,224,0,0
3801,,,3801,Wallops Flight Facility Airport,Wallops Island,United States,WAL,KWAL,37.940201,-75.4664,40,-5,A,America/New_York,airport,OurAirports,,,,0,0,0,0,0,0,0,0,0,0,0,0,218,0,0.000238,219,225,0,0
3802,,,3802,Holloman Air Force Base,Alamogordo,United States,HMN,KHMN,32.852501,-106.107002,4093,-7,A,America/Denver,airport,OurAirports,,,,0,0,0,0,0,0,0,0,0,0,0,0,219,0,0.000238,220,226,0,0
3803,,,3803,Willow Grove Naval Air Station/Joint Reserve Base,Willow Grove,United States,NXX,KNXX,40.199799,-75.148201,358,-5,A,America/New_York,airport,OurAirports,,,,0,0,0,0,0,0,0,0,0,0,0,0,220,0,0.000238,221,227,0,0
3804,,,3804,Cheyenne Regional Jerry Olson Field,Cheyenne,United States,CYS,KCYS,41.155701,-104.811996,6159,-7,A,America/Denver,airport,OurAirports,,,,2,2,4,6,6,12,7,0.347167,0.378172,867,0.004302,0.004265,184,0,0.000882,3,7,0,0.022504
3805,,,3805,Stockton Metropolitan Airport,Stockton,United States,SCK,KSCK,37.894199,-121.237999,33,-8,A,America/Los_Angeles,airport,OurAirports,,,,1,1,2,1,1,2,8,0.325599,0.358692,0,0.004008,0.004007,184,0,0.000336,3,7,0,0.020429
3806,,,3806,Charleston Air Force Base-International Airport,Charleston,United States,CHS,KCHS,32.898602,-80.040497,46,-5,A,America/New_York,airport,OurAirports,,,,19,19,38,35,28,63,7,0.384615,0.438325,15.90438,0.063524,0.063885,256,0.836842,0.002051,3,7,0.836842,0.314679
3807,,,3807,Reno Tahoe International Airport,Reno,United States,RNO,KRNO,39.4991,-119.767998,4415,-8,A,America/Los_Angeles,airport,OurAirports,,,,13,12,25,28,26,54,7,0.391539,0.439091,2.07368,0.041623,0.039524,184,0.910256,0.00158,3,7,0.910256,0.211458
3808,,,3808,Ketchikan International Airport,Ketchikan,United States,KTN,PAKT,55.355598,-131.714004,89,-9,A,America/Anchorage,airport,OurAirports,,,,2,1,3,3,1,4,1,1,1,1,0,0,221,0,0.002316,222,228,0,0.000484
3809,,,3809,Willow Run Airport,Detroit,United States,YIP,KYIP,42.2379,-83.530403,716,-5,A,America/New_York,airport,OurAirports,,,,0,0,0,0,0,0,0,0,0,0,0,0,222,0,0.000238,223,229,0,0
3810,,,3810,Vandenberg Air Force Base,Lompoc,United States,VBG,KVBG,34.737301,-120.584,369,-8,A,America/Los_Angeles,airport,OurAirports,,,,0,0,0,0,0,0,0,0,0,0,0,0,223,0,0.000238,224,230,0,0
3811,,,3811,Birmingham-Shuttlesworth International Airport,Birmingham,United States,BHM,KBHM,33.562901,-86.753502,650,-6,A,America/Chicago,airport,OurAirports,,,,18,18,36,28,29,57,7,0.400184,0.452885,42.90818,0.062044,0.061494,256,0.803922,0.001969,3,7,0.803922,0.309564
3812,,,3812,Lakehurst Maxfield Field Airport,Lakehurst,United States,NEL,KNEL,40.033298,-74.353302,101,-5,A,America/New_York,airport,OurAirports,,,,0,0,0,0,0,0,0,0,0,0,0,0,224,0,0.000238,225,231,0,0
3814,,,3814,Nellis Air Force Base,Las Vegas,United States,LSV,KLSV,36.236198,-115.033997,1870,-8,A,America/Los_Angeles,airport,OurAirports,,,,0,0,0,0,0,0,0,0,0,0,0,0,226,0,0.000238,227,233,0,0
3815,,,3815,March ARB Airport,Riverside,United States,RIV,KRIV,33.880699,-117.259003,1536,-8,A,America/Los_Angeles,airport,OurAirports,,,,0,0,0,0,0,0,0,0,0,0,0,0,227,0,0.000238,228,234,0,0
3816,,,3816,Modesto City Co-Harry Sham Field,Modesto,United States,MOD,KMOD,37.625801,-120.954002,97,-8,A,America/Los_Angeles,airport,OurAirports,,,,1,1,2,1,1,2,8,0.3125,0.339918,0,0.003048,0.003033,184,0,0.000342,3,7,0,0.015243
3817,,,3817,Sacramento International Airport,Sacramento,United States,SMF,KSMF,38.6954,-121.591003,27,-8,A,America/Los_Angeles,airport,OurAirports,,,,25,23,48,44,44,88,7,0.409991,0.466486,385.03972,0.065047,0.061954,184,0.666667,0.002917,3,7,0.665,0.329796
3818,,,3818,Waukegan National Airport,Chicago,United States,UGN,KUGN,42.422199,-87.867897,727,-6,A,America/Chicago,airport,OurAirports,,,,0,0,0,0,0,0,0,0,0,0,0,0,228,0,0.000238,229,235,0,0
3819,,,3819,City of Colorado Springs Municipal Airport,Colorado Springs,United States,COS,KCOS,38.805801,-104.700996,6187,-7,A,America/Denver,airport,OurAirports,,,,9,9,18,10,10,20,7,0.393665,0.439091,4.47521,0.033665,0.033443,152,0.972222,0.001197,3,7,0.972222,0.170688
3820,,,3820,Buffalo Niagara International Airport,Buffalo,United States,BUF,KBUF,42.940498,-78.732201,728,-5,A,America/New_York,airport,OurAirports,,,,19,19,38,31,32,63,7,0.392245,0.445222,1.919515,0.066321,0.066024,256,0.923977,0.002049,3,7,0.923977,0.329463
3821,,,3821,Griffing Sandusky Airport,Sandusky,United States,SKY,KSKY,41.433399,-82.652298,580,-5,A,America/New_York,airport,OurAirports,,,,0,0,0,0,0,0,0,0,0,0,0,0,229,0,0.000238,230,236,0,0
3822,,,3822,Snohomish County (Paine Field) Airport,Everett,United States,PAE,KPAE,47.9063,-122.281998,606,-8,A,America/Los_Angeles,airport,OurAirports,,,,0,0,0,0,0,0,0,0,0,0,0,0,230,0,0.000238,231,237,0,0
3823,,,3823,Mountain Home Air Force Base,Mountain Home,United States,MUO,KMUO,43.043598,-115.872002,2996,-7,A,America/Denver,airport,OurAirports,,,,0,0,0,0,0,0,0,0,0,0,0,0,231,0,0.000238,232,238,0,0
3824,,,3824,Cedar City Regional Airport,Cedar City,United States,CDC,KCDC,37.701,-113.098999,5622,-7,A,America/Denver,airport,OurAirports,,,,1,1,2,1,1,2,7,0.323902,0.347406,0,0.002936,0.002958,184,0,0.000358,3,7,0,0.015236
3825,,,3825,Bradley International Airport,Windsor Locks,United States,BDL,KBDL,41.9389,-72.683197,173,-5,A,America/New_York,airport,OurAirports,,,,23,23,46,47,46,93,7,0.411153,0.466869,30.671605,0.075174,0.074772,256,0.86166,0.002448,3,7,0.86166,0.374443
3826,,,3826,Mc Allen Miller International Airport,Mcallen,United States,MFE,KMFE,26.1758,-98.238602,107,-6,A,America/Chicago,airport,OurAirports,,,,3,3,6,4,4,8,8,0.34252,0.38532,0,0.012041,0.011995,152,1,0.000546,3,7,1,0.061218
3827,,,3827,Norfolk Naval Station (Chambers Field),Norfolk,United States,NGU,KNGU,36.937599,-76.289299,17,-5,A,America/New_York,airport,OurAirports,,,,0,0,0,0,0,0,0,0,0,0,0,0,232,0,0.000238,233,239,0,0
3828,,,3828,Westover ARB/Metropolitan Airport,Chicopee Falls,United States,CEF,KCEF,42.194,-72.534798,241,-5,A,America/New_York,airport,OurAirports,,,,0,0,0,0,0,0,0,0,0,0,0,0,233,0,0.000238,234,240,0,0
3829,,,3829,Lubbock Preston Smith International Airport,Lubbock,United States,LBB,KLBB,33.663601,-101.822998,3282,-6,A,America/Chicago,airport,OurAirports,,,,7,7,14,9,10,19,7,0.369898,0.410547,46.913231,0.01981,0.019554,152,0.607143,0.00096,3,7,0.607143,0.099967
3830,,,3830,Chicago O'Hare International Airport,Chicago,United States,ORD,KORD,41.9786,-87.9048,672,-6,A,America/Chicago,airport,OurAirports,,,,145,148,293,353,360,713,6,0.523466,0.639617,28282.318159,0.196537,0.198833,234,0.131366,0.018218,3,7,0.129436,1
3831,,,3831,Boca Raton Airport,Boca Raton,United States,BCT,KBCT,26.3785,-80.107697,13,-5,A,America/New_York,airport,OurAirports,,,,0,0,0,0,0,0,0,0,0,0,0,0,235,0,0.000238,235,241,0,0
3832,,,3832,Fairbanks International Airport,Fairbanks,United States,FAI,PAFA,64.815102,-147.856003,439,-9,A,America/Anchorage,airport,OurAirports,,,,3,1,4,3,1,4,1,1,1,14,0,0,419,0,0.005106,0,0,0,0.00087
3833,,,3833,Quantico MCAF /Turner field,Quantico,United States,\N,KNYG,38.501701,-77.305298,10,-5,A,America/New_York,airport,OurAirports,,,,0,0,0,0,0,0,0,0,0,0,0,0,236,0,0.000238,236,242,0,0
3834,,,3834,Cannon Air Force Base,Clovis,United States,CVS,KCVS,34.382801,-103.321999,4295,-7,A,America/Denver,airport,OurAirports,,,,0,0,0,0,0,0,0,0,0,0,0,0,237,0,0.000238,237,243,0,0
3835,,,3835,Kaneohe Bay MCAS (Marion E. Carl Field) Airport,Kaneohe Bay,United States,NGF,PHNG,21.4505,-157.768005,24,-10,A,Pacific/Honolulu,airport,OurAirports,,,,0,0,0,0,0,0,0,0,0,0,0,0,238,0,0.000238,238,244,0,0
3836,,,3836,Offutt Air Force Base,Omaha,United States,OFF,KOFF,41.118301,-95.912498,1052,-6,A,America/Chicago,airport,OurAirports,,,,0,0,0,0,0,0,0,0,0,0,0,0,239,0,0.000238,239,245,0,0
3837,,,3837,Gulkana Airport,Gulkana,United States,GKN,PAGK,62.1549,-145.457001,1586,-9,A,America/Anchorage,airport,OurAirports,,,,0,0,0,0,0,0,0,0,0,0,0,0,240,0,0.000238,240,246,0,0
3838,,,3838,Watertown International Airport,Watertown,United States,ART,KART,43.991901,-76.021698,325,-5,A,America/New_York,airport,OurAirports,,,,2,2,4,4,4,8,7,0.349117,0.382003,0,0.008227,0.008152,234,1,0.000436,3,7,1,0.041418
3839,,,3839,Palm Springs International Airport,Palm Springs,United States,PSP,KPSP,33.8297,-116.507004,477,-8,A,America/Los_Angeles,airport,OurAirports,,,,11,11,22,19,20,39,7,0.394379,0.441582,70.36068,0.038013,0.037902,184,0.854545,0.001429,3,7,0.854545,0.193652
3840,,,3840,Rick Husband Amarillo International Airport,Amarillo,United States,AMA,KAMA,35.219398,-101.706001,3607,-6,A,America/Chicago,airport,OurAirports,,,,5,6,11,9,10,19,7,0.370844,0.410739,11.852175,0.017163,0.020019,152,0.6,0.00076,3,7,0.6,0.086871
3841,,,3841,Fort Dodge Regional Airport,Fort Dodge,United States,FOD,KFOD,42.551498,-94.192596,1156,-6,A,America/Chicago,airport,OurAirports,,,,0,0,0,0,0,0,0,0,0,0,0,0,241,0,0.000238,241,247,0,0
3842,,,3842,Barksdale Air Force Base,Shreveport,United States,BAD,KBAD,32.501801,-93.662697,166,-6,A,America/Chicago,airport,OurAirports,,,,0,0,0,0,0,0,0,0,0,0,0,0,242,0,0.000238,242,248,0,0
3843,,,3843,Topeka Regional Airport - Forbes Field,Topeka,United States,FOE,KFOE,38.950901,-95.663597,1078,-6,A,America/Chicago,airport,OurAirports,,,,1,1,2,1,1,2,7,0.343874,0.374992,0,0.004507,0.004455,234,0,0.000343,3,7,0,0.023035
3844,,,3844,Cotulla-La Salle County Airport,Cotulla,United States,COT,KCOT,28.456699,-99.220299,474,-6,A,America/Chicago,airport,OurAirports,,,,0,0,0,0,0,0,0,0,0,0,0,0,243,0,0.000238,243,249,0,0
3845,,,3845,Wilmington International Airport,Wilmington,United States,ILM,KILM,34.270599,-77.902603,32,-5,A,America/New_York,airport,OurAirports,,,,4,4,8,9,9,18,8,0.327807,0.365972,0,0.014113,0.013991,256,1,0.000607,3,7,1,0.069777
3846,,,3846,Baton Rouge Metropolitan Airport,Baton Rouge,United States,BTR,KBTR,30.533199,-91.149597,70,-6,A,America/Chicago,airport,OurAirports,,,,3,3,6,5,5,10,8,0.340109,0.384056,0,0.012045,0.011958,152,1,0.000549,3,7,1,0.060782
3847,,,3847,Meridian Naval Air Station,Meridian,United States,\N,KNMM,32.552101,-88.555603,316,-6,A,America/Chicago,airport,OurAirports,,,,0,0,0,0,0,0,0,0,0,0,0,0,244,0,0.000238,244,250,0,0
3848,,,3848,Tyler Pounds Regional Airport,Tyler,United States,TYR,KTYR,32.354099,-95.402397,544,-6,A,America/Chicago,airport,OurAirports,,,,2,2,4,3,3,6,8,0.330296,0.369305,0,0.008033,0.007988,152,1,0.000448,3,7,1,0.040789
3849,,,3849,Baltimore/Washington International Thurgood Marshall Airport,Baltimore,United States,BWI,KBWI,39.1754,-76.668297,146,-5,A,America/New_York,airport,OurAirports,,,,63,63,126,132,129,261,7,0.450311,0.532386,1175.065524,0.147319,0.148229,256,0.47107,0.006826,3,7,0.465182,0.73877
3850,,,3850,Hobart Regional Airport,Hobart,United States,HBR,KHBR,34.991317,-99.051313,1563,-6,A,America/Chicago,airport,OurAirports,,,,0,0,0,0,0,0,0,0,0,0,0,0,245,0,0.000238,245,251,0,0
3851,,,3851,Lanai Airport,Lanai,United States,LNY,PHNY,20.785601,-156.951004,1308,-10,N,Pacific/Honolulu,airport,OurAirports,,,,1,1,2,2,2,4,8,0.286184,0.306738,0,0.001232,0.001242,184,0,0.000346,3,7,0,0.006383
3852,,,3852,Alexandria International Airport,Alexandria,United States,AEX,KAEX,31.3274,-92.549797,89,-6,A,America/Chicago,airport,OurAirports,,,,2,2,4,3,3,6,8,0.330296,0.369305,0,0.008033,0.007988,152,1,0.000448,3,7,1,0.040789
3853,,,3853,Condron Army Air Field,White Sands,United States,WSD,KWSD,32.341499,-106.403,3934,-7,A,America/Denver,airport,OurAirports,,,,0,0,0,0,0,0,0,0,0,0,0,0,246,0,0.000238,246,252,0,0
3854,,,3854,Cold Bay Airport,Cold Bay,United States,CDB,PACD,55.2061,-162.725006,96,-9,A,America/Anchorage,airport,OurAirports,,,,1,1,2,2,2,4,6,0.289614,0.301992,0,0.000485,0.000482,112,0,0.000512,3,7,0,0.002882
3855,,,3855,Tulsa International Airport,Tulsa,United States,TUL,KTUL,36.198399,-95.8881,677,-6,A,America/Chicago,airport,OurAirports,,,,17,17,34,24,23,47,7,0.408451,0.459781,232.004981,0.054794,0.054394,234,0.705882,0.001961,3,7,0.702206,0.275883
3856,,,3856,Sitka Rocky Gutierrez Airport,Sitka,United States,SIT,PASI,57.0471,-135.362,21,-9,A,America/Anchorage,airport,OurAirports,,,,0,0,0,0,0,0,0,0,0,0,0,0,247,0,0.000238,247,253,0,0
3857,,,3857,Long Island Mac Arthur Airport,Islip,United States,ISP,KISP,40.7952,-73.100197,99,-5,A,America/New_York,airport,OurAirports,,,,10,10,20,16,17,33,8,0.336427,0.38283,38.223445,0.027423,0.026023,256,0.563636,0.001168,3,7,0.563636,0.13533
3858,,,3858,Minneapolis-St Paul International/Wold-Chamberlain Airport,Minneapolis,United States,MSP,KMSP,44.882,-93.221802,841,-6,A,America/Chicago,airport,OurAirports,,,,116,115,231,187,189,376,6,0.508772,0.604943,20627.912184,0.178523,0.177062,234,0.186413,0.01484,3,7,0.185234,0.905098
3859,,,3859,New Castle Airport,Wilmington,United States,ILG,KILG,39.678699,-75.606499,80,-5,A,America/New_York,airport,OurAirports,,,,6,6,12,6,6,12,7,0.365854,0.404992,0.101149,0.020057,0.019935,256,0.866667,0.000813,3,7,0.866667,0.099942
3860,,,3860,Unalaska Airport,Unalaska,United States,DUT,PADU,53.900101,-166.544006,22,-9,A,America/Anchorage,airport,OurAirports,,,,0,0,0,0,0,0,0,0,0,0,0,0,248,0,0.000238,248,254,0,0
3861,,,3861,Louis Armstrong New Orleans International Airport,New Orleans,United States,MSY,KMSY,29.993401,-90.258003,4,-6,A,America/Chicago,airport,OurAirports,,,,32,34,66,94,97,191,7,0.436309,0.498287,236.67592,0.096678,0.103415,256,0.791444,0.003331,3,7,0.789661,0.479638
3862,,,3862,Portland International Jetport Airport,Portland,United States,PWM,KPWM,43.646198,-70.309303,76,-5,A,America/New_York,airport,OurAirports,,,,11,2,13,15,2,17,8,0.316134,0.345282,0.273421,0.03951,0.00629,256,0.854545,0.001282,3,7,0.854545,0.195791
3863,,,3863,Will Rogers World Airport,Oklahoma City,United States,OKC,KOKC,35.393101,-97.6007,1295,-6,A,America/Chicago,airport,OurAirports,,,,22,20,42,41,40,81,7,0.416268,0.469551,368.298025,0.067621,0.063855,184,0.714286,0.002469,3,7,0.707792,0.340016
3864,,,3864,Albany International Airport,Albany,United States,ALB,KALB,42.748299,-73.801697,285,-5,A,America/New_York,airport,OurAirports,,,,18,18,36,25,26,51,7,0.38874,0.440816,1733.220323,0.057137,0.056885,256,0.745098,0.002365,3,7,0.745098,0.2845
3865,,,3865,Valdez Pioneer Field,Valdez,United States,VDZ,PAVD,61.1339,-146.248001,121,-9,A,America/Anchorage,airport,OurAirports,,,,0,0,0,0,0,0,0,0,0,0,0,0,249,0,0.000238,249,255,0,0
3866,,,3866,Langley Air Force Base,Hampton,United States,LFI,KLFI,37.082901,-76.360497,11,-5,A,America/New_York,airport,OurAirports,,,,0,0,0,0,0,0,0,0,0,0,0,0,250,0,0.000238,250,256,0,0
3867,,,3867,John Wayne Airport-Orange County Airport,Santa Ana,United States,SNA,KSNA,33.675701,-117.867996,56,-8,A,America/Los_Angeles,airport,OurAirports,,,,15,14,29,30,28,58,7,0.394737,0.444264,35.673422,0.044845,0.044202,184,0.72381,0.00178,3,7,0.714286,0.228081
3868,,,3868,Columbus Air Force Base,Colombus,United States,CBM,KCBM,33.643799,-88.443802,219,-6,A,America/Chicago,airport,OurAirports,,,,0,0,0,0,0,0,0,0,0,0,0,0,251,0,0.000238,251,257,0,0
3869,,,3869,Kendall-Tamiami Executive Airport,Kendall-tamiami,United States,TMB,KTMB,25.6479,-80.4328,8,-5,A,America/New_York,airport,OurAirports,,,,0,0,0,0,0,0,0,0,0,0,0,0,252,0,0.000238,252,258,0,0
3870,,,3870,Oceana Naval Air Station,Oceana,United States,NTU,KNTU,36.820702,-76.033501,23,-5,A,America/New_York,airport,OurAirports,,,,0,0,0,0,0,0,0,0,0,0,0,0,253,0,0.000238,253,259,0,0
3871,,,3871,Grissom Air Reserve Base,Peru,United States,GUS,KGUS,40.648102,-86.1521,812,-5,A,America/New_York,airport,OurAirports,,,,0,0,0,0,0,0,0,0,0,0,0,0,254,0,0.000238,254,260,0,0
3872,,,3872,Casper-Natrona County International Airport,Casper,United States,CPR,KCPR,42.908001,-106.463997,5350,-7,A,America/Denver,airport,OurAirports,,,,3,3,6,3,3,6,7,0.355683,0.389666,0,0.011243,0.011228,184,1,0.000578,3,7,1,0.057906
